"pref_cd","station_cd","station_name","post","add","lat","lon","line_cd","line_name_h","company_cd","company_name"
1,1110101,"函館","040-0063","北海道函館市若松町１２-１３",41.773709,140.726413,11101,"JR函館本線(函館～長万部)",1,"JR北海道"
1,1110102,"五稜郭","041-0813","函館市亀田本町",41.803557,140.733539,11101,"JR函館本線(函館～長万部)",1,"JR北海道"
1,1110103,"桔梗","041-0801","北海道函館市桔梗３丁目４１-３６",41.846457,140.722952,11101,"JR函館本線(函館～長万部)",1,"JR北海道"
1,1110104,"大中山","041-1121","亀田郡七飯町大字大中山",41.864641,140.71358,11101,"JR函館本線(函館～長万部)",1,"JR北海道"
1,1110105,"七飯","041-1111","亀田郡七飯町字本町",41.886971,140.688556,11101,"JR函館本線(函館～長万部)",1,"JR北海道"
1,1110106,"新函館北斗","041-1242","北海道北斗市市渡",41.9054,140.646525,11101,"JR函館本線(函館～長万部)",1,"JR北海道"
1,1110107,"仁山","041-1101","亀田郡七飯町字仁山",41.930011,140.635183,11101,"JR函館本線(函館～長万部)",1,"JR北海道"
1,1110108,"大沼","041-1354","北海道亀田郡七飯町字大沼町４",41.971954,140.669347,11101,"JR函館本線(函館～長万部)",1,"JR北海道"
1,1110109,"大沼公園","041-1354","北海道亀田郡七飯町字大沼町８５",41.980958,140.669758,11101,"JR函館本線(函館～長万部)",1,"JR北海道"
1,1110110,"赤井川","049-2142","茅部郡森町字赤井川",42.003267,140.642678,11101,"JR函館本線(函館～長万部)",1,"JR北海道"
1,1110111,"駒ケ岳","049-2300","北海道茅部郡森町字駒ヶ岳",42.038809,140.610476,11101,"JR函館本線(函館～長万部)",1,"JR北海道"
1,1110114,"池田園","041-1352","亀田郡七飯町字軍川",41.990692,140.700333,11101,"JR函館本線(函館～長万部)",1,"JR北海道"
1,1110115,"流山温泉","041-1351","亀田郡七飯町字東大沼２３６",42.003483,140.716358,11101,"JR函館本線(函館～長万部)",1,"JR北海道"
1,1110116,"銚子口","041-1351","亀田郡七飯町字東大沼",42.015471,140.720656,11101,"JR函館本線(函館～長万部)",1,"JR北海道"
1,1110117,"鹿部","041-1404","茅部郡鹿部町字本別",42.06439,140.771393,11101,"JR函館本線(函館～長万部)",1,"JR北海道"
1,1110118,"渡島沼尻","049-2223","茅部郡森町砂原東４丁目",42.10706,140.747596,11101,"JR函館本線(函館～長万部)",1,"JR北海道"
1,1110119,"渡島砂原","049-2222","茅部郡森町砂原４丁目",42.12164,140.689451,11101,"JR函館本線(函館～長万部)",1,"JR北海道"
1,1110120,"掛澗","049-2221","茅部郡森町砂原西３丁目",42.119205,140.64598,11101,"JR函館本線(函館～長万部)",1,"JR北海道"
1,1110121,"尾白内","049-2301","茅部郡森町字尾白内町",42.111232,140.613449,11101,"JR函館本線(函館～長万部)",1,"JR北海道"
1,1110122,"東森","049-2302","茅部郡森町字港町",42.106823,140.59353,11101,"JR函館本線(函館～長万部)",1,"JR北海道"
1,1110123,"森","049-2325","茅部郡森町字本町",42.108917,140.573846,11101,"JR函館本線(函館～長万部)",1,"JR北海道"
1,1110125,"石谷","049-2464","茅部郡森町字本茅部町",42.135519,140.506525,11101,"JR函館本線(函館～長万部)",1,"JR北海道"
1,1110126,"本石倉","049-2463","茅部郡森町字石倉町",42.159668,140.471957,11101,"JR函館本線(函館～長万部)",1,"JR北海道"
1,1110127,"石倉","049-2463","茅部郡森町字石倉町",42.17285,140.458436,11101,"JR函館本線(函館～長万部)",1,"JR北海道"
1,1110128,"落部","049-2562","二海郡八雲町落部",42.187617,140.420755,11101,"JR函館本線(函館～長万部)",1,"JR北海道"
1,1110129,"野田生","049-2672","二海郡八雲町野田生",42.217104,140.37586,11101,"JR函館本線(函館～長万部)",1,"JR北海道"
1,1110130,"山越","049-2671","二海郡八雲町山越",42.231172,140.326593,11101,"JR函館本線(函館～長万部)",1,"JR北海道"
1,1110131,"八雲","049-3107","二海郡八雲町本町",42.253391,140.273342,11101,"JR函館本線(函館～長万部)",1,"JR北海道"
1,1110133,"山崎","049-3342","二海郡八雲町山崎",42.314635,140.2746,11101,"JR函館本線(函館～長万部)",1,"JR北海道"
1,1110134,"黒岩","049-3341","二海郡八雲町黒岩",42.368296,140.288173,11101,"JR函館本線(函館～長万部)",1,"JR北海道"
1,1110136,"国縫","049-3462","山越郡長万部町字国縫",42.439319,140.320885,11101,"JR函館本線(函館～長万部)",1,"JR北海道"
1,1110137,"中ノ沢","049-3512","山越郡長万部町字中の沢",42.477928,140.346077,11101,"JR函館本線(函館～長万部)",1,"JR北海道"
1,1110138,"長万部","049-3521","山越郡長万部町字長万部",42.512477,140.37507,11101,"JR函館本線(函館～長万部)",1,"JR北海道"
1,1110201,"長万部","049-3521","山越郡長万部町字長万部",42.512477,140.37507,11102,"JR函館本線(長万部～小樽)",1,"JR北海道"
1,1110202,"二股","049-3501","山越郡長万部町字双葉",42.575869,140.320821,11102,"JR函館本線(長万部～小樽)",1,"JR北海道"
1,1110204,"黒松内","048-0101","寿都郡黒松内町字黒松内",42.669608,140.305704,11102,"JR函館本線(長万部～小樽)",1,"JR北海道"
1,1110205,"熱郛","048-0134","寿都郡黒松内町字白井川",42.675653,140.375084,11102,"JR函館本線(長万部～小樽)",1,"JR北海道"
1,1110206,"目名","048-1261","磯谷郡蘭越町目名町",42.761432,140.465742,11102,"JR函館本線(長万部～小樽)",1,"JR北海道"
1,1110207,"蘭越","048-1301","磯谷郡蘭越町蘭越町",42.804542,140.52894,11102,"JR函館本線(長万部～小樽)",1,"JR北海道"
1,1110208,"昆布","048-1302","磯谷郡蘭越町昆布町",42.797984,140.596107,11102,"JR函館本線(長万部～小樽)",1,"JR北海道"
1,1110209,"ニセコ","048-1512","虻田郡ニセコ町字中央通",42.808746,140.684588,11102,"JR函館本線(長万部～小樽)",1,"JR北海道"
1,1110210,"比羅夫","044-0077","虻田郡倶知安町比羅夫",42.84856,140.722615,11102,"JR函館本線(長万部～小樽)",1,"JR北海道"
1,1110211,"倶知安","044-0051","虻田郡倶知安町北三条西４丁目",42.90164,140.745471,11102,"JR函館本線(長万部～小樽)",1,"JR北海道"
1,1110212,"小沢","048-2142","岩内郡共和町小沢",42.97185,140.677657,11102,"JR函館本線(長万部～小樽)",1,"JR北海道"
1,1110213,"銀山","048-2335","余市郡仁木町銀山２丁目",43.040888,140.715321,11102,"JR函館本線(長万部～小樽)",1,"JR北海道"
1,1110214,"然別","048-2403","余市郡仁木町然別",43.12551,140.737211,11102,"JR函館本線(長万部～小樽)",1,"JR北海道"
1,1110215,"仁木","048-2405","余市郡仁木町字北町１丁目",43.154091,140.770546,11102,"JR函館本線(長万部～小樽)",1,"JR北海道"
1,1110216,"余市","046-0003","余市郡余市町黒川町５丁目",43.186558,140.794686,11102,"JR函館本線(長万部～小樽)",1,"JR北海道"
1,1110217,"蘭島","048-2562","小樽市蘭島１丁目",43.19651,140.854643,11102,"JR函館本線(長万部～小樽)",1,"JR北海道"
1,1110218,"塩谷","048-2672","小樽市塩谷２丁目",43.202406,140.924546,11102,"JR函館本線(長万部～小樽)",1,"JR北海道"
1,1110219,"小樽","047-0032","小樽市稲穂２丁目",43.197172,140.993653,11102,"JR函館本線(長万部～小樽)",1,"JR北海道"
1,1110301,"小樽","047-0032","小樽市稲穂２丁目",43.197172,140.993653,11103,"JR函館本線(小樽～旭川)",1,"JR北海道"
1,1110302,"南小樽","047-0015","小樽市住吉町",43.186529,141.007883,11103,"JR函館本線(小樽～旭川)",1,"JR北海道"
1,1110303,"小樽築港","047-0008","小樽市築港",43.180752,141.029051,11103,"JR函館本線(小樽～旭川)",1,"JR北海道"
1,1110304,"朝里","047-0151","小樽市朝里１丁目",43.176868,141.063923,11103,"JR函館本線(小樽～旭川)",1,"JR北海道"
1,1110305,"銭函","047-0261","小樽市銭函２丁目",43.143403,141.159868,11103,"JR函館本線(小樽～旭川)",1,"JR北海道"
1,1110306,"ほしみ","006-0859","札幌市手稲区手稲星置１条９丁目",43.13373,141.191402,11103,"JR函館本線(小樽～旭川)",1,"JR北海道"
1,1110307,"星置","006-0851","札幌市手稲区星置１条３丁目",43.132375,141.210856,11103,"JR函館本線(小樽～旭川)",1,"JR北海道"
1,1110308,"稲穂","006-0831","札幌市手稲区曙１条３丁目",43.128115,141.222919,11103,"JR函館本線(小樽～旭川)",1,"JR北海道"
1,1110309,"手稲","006-0021","札幌市手稲区手稲本町１条４丁目",43.120238,141.243785,11103,"JR函館本線(小樽～旭川)",1,"JR北海道"
1,1110310,"稲積公園","006-0011","札幌市手稲区富丘１条４丁目",43.112023,141.257113,11103,"JR函館本線(小樽～旭川)",1,"JR北海道"
1,1110311,"発寒","063-0829","札幌市西区発寒９条１３丁目",43.099819,141.277273,11103,"JR函館本線(小樽～旭川)",1,"JR北海道"
1,1110312,"発寒中央","063-0826","札幌市西区発寒十条３丁目",43.089271,141.294497,11103,"JR函館本線(小樽～旭川)",1,"JR北海道"
1,1110313,"琴似","063-0812","札幌市西区琴似2条2丁目",43.081599,141.307418,11103,"JR函館本線(小樽～旭川)",1,"JR北海道"
1,1110314,"桑園","060-0011","札幌市中央区北１１条西１５丁目",43.070744,141.332036,11103,"JR函館本線(小樽～旭川)",1,"JR北海道"
1,1110315,"札幌","060-0806","札幌市北区北６条西４丁目",43.068612,141.350768,11103,"JR函館本線(小樽～旭川)",1,"JR北海道"
1,1110316,"苗穂","060-0033","札幌市中央区北３条東１３丁目",43.068574,141.377522,11103,"JR函館本線(小樽～旭川)",1,"JR北海道"
1,1110317,"白石","003-0029","札幌市白石区平和通3丁目北6",43.054715,141.413612,11103,"JR函館本線(小樽～旭川)",1,"JR北海道"
1,1110318,"厚別","004-0055","札幌市厚別区厚別中央５条４丁目",43.045154,141.46369,11103,"JR函館本線(小樽～旭川)",1,"JR北海道"
1,1110319,"森林公園","004-0071","札幌市厚別区厚別北１条４丁目",43.056456,141.481332,11103,"JR函館本線(小樽～旭川)",1,"JR北海道"
1,1110320,"大麻","069-0854","江別市大麻中町",43.072382,141.496925,11103,"JR函館本線(小樽～旭川)",1,"JR北海道"
1,1110321,"野幌","069-0813","江別市野幌町",43.092559,141.52984,11103,"JR函館本線(小樽～旭川)",1,"JR北海道"
1,1110322,"高砂","067-0074","江別市高砂町",43.100084,141.540752,11103,"JR函館本線(小樽～旭川)",1,"JR北海道"
1,1110323,"江別","067-0071","江別市萩ケ岡",43.110189,141.55679,11103,"JR函館本線(小樽～旭川)",1,"JR北海道"
1,1110324,"豊幌","067-0021","江別市豊幌",43.136446,141.62466,11103,"JR函館本線(小樽～旭川)",1,"JR北海道"
1,1110325,"幌向","069-0371","岩見沢市幌向南１条３丁目",43.151348,141.655839,11103,"JR函館本線(小樽～旭川)",1,"JR北海道"
1,1110326,"上幌向","069-0362","岩見沢市上幌向南１条４丁目",43.18183,141.715391,11103,"JR函館本線(小樽～旭川)",1,"JR北海道"
1,1110327,"岩見沢","068-0034","岩見沢市有明町南",43.204201,141.759359,11103,"JR函館本線(小樽～旭川)",1,"JR北海道"
1,1110328,"峰延","072-0000","美唄市峰延",43.264694,141.814673,11103,"JR函館本線(小樽～旭川)",1,"JR北海道"
1,1110329,"光珠内","072-0000","美唄市光珠内",43.292658,141.844655,11103,"JR函館本線(小樽～旭川)",1,"JR北海道"
1,1110330,"美唄","072-0012","美唄市東一条南２丁目",43.330751,141.862157,11103,"JR函館本線(小樽～旭川)",1,"JR北海道"
1,1110331,"茶志内","079-0261","美唄市茶志内町",43.369842,141.87336,11103,"JR函館本線(小樽～旭川)",1,"JR北海道"
1,1110332,"奈井江","079-0313","空知郡奈井江町本町１区",43.423718,141.889115,11103,"JR函館本線(小樽～旭川)",1,"JR北海道"
1,1110333,"豊沼","073-0138","砂川市豊沼町",43.464224,141.901032,11103,"JR函館本線(小樽～旭川)",1,"JR北海道"
1,1110334,"砂川","073-0152","砂川市東２条北２丁目",43.493468,141.909642,11103,"JR函館本線(小樽～旭川)",1,"JR北海道"
1,1110335,"滝川","073-0031","滝川市栄町４丁目",43.555278,141.900807,11103,"JR函館本線(小樽～旭川)",1,"JR北海道"
1,1110336,"江部乙","079-0462","滝川市江部乙町西町１２丁目",43.627564,141.935937,11103,"JR函館本線(小樽～旭川)",1,"JR北海道"
1,1110337,"妹背牛","079-0500","雨竜郡妹背牛町字妹背牛",43.690841,141.966591,11103,"JR函館本線(小樽～旭川)",1,"JR北海道"
1,1110338,"深川","074-0001","深川市１条",43.721021,142.041642,11103,"JR函館本線(小樽～旭川)",1,"JR北海道"
1,1110339,"納内","078-0151","深川市納内町字納内",43.732509,142.130072,11103,"JR函館本線(小樽～旭川)",1,"JR北海道"
1,1110340,"伊納","070-8052","旭川市江丹別町春日",43.763305,142.27167,11103,"JR函館本線(小樽～旭川)",1,"JR北海道"
1,1110341,"近文","070-0821","旭川市近文町１９丁目",43.789193,142.325327,11103,"JR函館本線(小樽～旭川)",1,"JR北海道"
1,1110342,"旭川","070-0030","旭川市宮下通８丁目",43.763492,142.357803,11103,"JR函館本線(小樽～旭川)",1,"JR北海道"
1,1110401,"長万部","049-3521","山越郡長万部町字長万部",42.512477,140.37507,11104,"JR室蘭本線(長万部・室蘭～苫小牧)",1,"JR北海道"
1,1110402,"静狩","049-5141","山越郡長万部町字静狩",42.584065,140.460025,11104,"JR室蘭本線(長万部・室蘭～苫小牧)",1,"JR北海道"
1,1110403,"小幌","049-5333","虻田郡豊浦町字礼文華",42.589731,140.537361,11104,"JR室蘭本線(長万部・室蘭～苫小牧)",1,"JR北海道"
1,1110404,"礼文","049-5333","虻田郡豊浦町字礼文華",42.580422,140.595013,11104,"JR室蘭本線(長万部・室蘭～苫小牧)",1,"JR北海道"
1,1110405,"大岸","049-5332","虻田郡豊浦町字大岸",42.585969,140.639036,11104,"JR室蘭本線(長万部・室蘭～苫小牧)",1,"JR北海道"
1,1110406,"豊浦","049-5412","虻田郡豊浦町字旭町",42.580323,140.71536,11104,"JR室蘭本線(長万部・室蘭～苫小牧)",1,"JR北海道"
1,1110407,"洞爺","049-5611","虻田郡洞爺湖町旭町",42.55055,140.763959,11104,"JR室蘭本線(長万部・室蘭～苫小牧)",1,"JR北海道"
1,1110408,"有珠","059-0151","伊達市有珠町",42.513267,140.793969,11104,"JR室蘭本線(長万部・室蘭～苫小牧)",1,"JR北海道"
1,1110409,"長和","052-0035","伊達市長和町",42.488262,140.833783,11104,"JR室蘭本線(長万部・室蘭～苫小牧)",1,"JR北海道"
1,1110410,"伊達紋別","052-0032","伊達市山下町",42.469395,140.855802,11104,"JR室蘭本線(長万部・室蘭～苫小牧)",1,"JR北海道"
1,1110411,"北舟岡","052-0014","伊達市舟岡町",42.450528,140.880259,11104,"JR室蘭本線(長万部・室蘭～苫小牧)",1,"JR北海道"
1,1110412,"稀府","059-0273","伊達市南稀府町",42.425567,140.898836,11104,"JR室蘭本線(長万部・室蘭～苫小牧)",1,"JR北海道"
1,1110413,"黄金","059-0271","伊達市南黄金町",42.386441,140.907781,11104,"JR室蘭本線(長万部・室蘭～苫小牧)",1,"JR北海道"
1,1110414,"崎守","050-0055","室蘭市崎守町",42.373968,140.927141,11104,"JR室蘭本線(長万部・室蘭～苫小牧)",1,"JR北海道"
1,1110415,"本輪西","050-0065","室蘭市本輪西町１丁目",42.358734,140.977561,11104,"JR室蘭本線(長万部・室蘭～苫小牧)",1,"JR北海道"
1,1110416,"室蘭","051-0023","室蘭市入江町１",42.317864,140.97571,11104,"JR室蘭本線(長万部・室蘭～苫小牧)",1,"JR北海道"
1,1110417,"母恋","051-0004","室蘭市母恋北町１丁目",42.317295,140.990018,11104,"JR室蘭本線(長万部・室蘭～苫小牧)",1,"JR北海道"
1,1110418,"御崎","051-0001","室蘭市御崎町２丁目",42.329014,140.993881,11104,"JR室蘭本線(長万部・室蘭～苫小牧)",1,"JR北海道"
1,1110419,"輪西","050-0087","室蘭市仲町",42.333775,141.005743,11104,"JR室蘭本線(長万部・室蘭～苫小牧)",1,"JR北海道"
1,1110420,"東室蘭","050-0083","室蘭市東町２丁目",42.349374,141.026411,11104,"JR室蘭本線(長万部・室蘭～苫小牧)",1,"JR北海道"
1,1110421,"鷲別","059-0034","登別市鷲別町２丁目",42.35953,141.042759,11104,"JR室蘭本線(長万部・室蘭～苫小牧)",1,"JR北海道"
1,1110422,"幌別","059-0013","登別市幌別町３丁目",42.409782,141.107293,11104,"JR室蘭本線(長万部・室蘭～苫小牧)",1,"JR北海道"
1,1110423,"富浦","059-0462","登別市富浦町１丁目",42.441957,141.156878,11104,"JR室蘭本線(長万部・室蘭～苫小牧)",1,"JR北海道"
1,1110424,"登別","059-0466","登別市登別港町１丁目",42.45207,141.180931,11104,"JR室蘭本線(長万部・室蘭～苫小牧)",1,"JR北海道"
1,1110425,"虎杖浜","059-0641","白老郡白老町字虎杖浜",42.464695,141.215092,11104,"JR室蘭本線(長万部・室蘭～苫小牧)",1,"JR北海道"
1,1110426,"竹浦","059-0642","白老郡白老町字竹浦",42.49284,141.260395,11104,"JR室蘭本線(長万部・室蘭～苫小牧)",1,"JR北海道"
1,1110427,"北吉原","059-0923","白老郡白老町字北吉原",42.509119,141.286199,11104,"JR室蘭本線(長万部・室蘭～苫小牧)",1,"JR北海道"
1,1110428,"萩野","059-0922","白老郡白老町字萩野",42.521159,141.30603,11104,"JR室蘭本線(長万部・室蘭～苫小牧)",1,"JR北海道"
1,1110429,"白老","059-0904","白老郡白老町東町１丁目",42.55474,141.360054,11104,"JR室蘭本線(長万部・室蘭～苫小牧)",1,"JR北海道"
1,1110430,"社台","059-0901","白老郡白老町字社台",42.578682,141.417433,11104,"JR室蘭本線(長万部・室蘭～苫小牧)",1,"JR北海道"
1,1110431,"錦岡","059-1275","苫小牧市字錦岡",42.6025,141.48722,11104,"JR室蘭本線(長万部・室蘭～苫小牧)",1,"JR北海道"
1,1110432,"糸井","053-0816","苫小牧市日吉町３丁目",42.6225,141.546187,11104,"JR室蘭本線(長万部・室蘭～苫小牧)",1,"JR北海道"
1,1110433,"青葉","053-0807","苫小牧市青葉町１丁目",42.62999,141.568278,11104,"JR室蘭本線(長万部・室蘭～苫小牧)",1,"JR北海道"
1,1110434,"苫小牧","053-0022","苫小牧市表町６丁目",42.639665,141.596837,11104,"JR室蘭本線(長万部・室蘭～苫小牧)",1,"JR北海道"
1,1110501,"苫小牧","053-0022","苫小牧市表町６丁目",42.639665,141.596837,11105,"JR室蘭本線(苫小牧～岩見沢)",1,"JR北海道"
1,1110502,"沼ノ端","059-1364","苫小牧市字沼ノ端",42.672057,141.693132,11105,"JR室蘭本線(苫小牧～岩見沢)",1,"JR北海道"
1,1110503,"遠浅","059-1433","勇払郡安平町遠浅",42.729533,141.769568,11105,"JR室蘭本線(苫小牧～岩見沢)",1,"JR北海道"
1,1110504,"早来","059-1501","勇払郡安平町早来大町",42.765237,141.814106,11105,"JR室蘭本線(苫小牧～岩見沢)",1,"JR北海道"
1,1110505,"安平","059-1511","勇払郡安平町安平",42.814007,141.825283,11105,"JR室蘭本線(苫小牧～岩見沢)",1,"JR北海道"
1,1110506,"追分","059-1931","勇払郡安平町追分中央",42.873316,141.810678,11105,"JR室蘭本線(苫小牧～岩見沢)",1,"JR北海道"
1,1110507,"三川","069-1200","夕張郡由仁町三川",42.945029,141.800778,11105,"JR室蘭本線(苫小牧～岩見沢)",1,"JR北海道"
1,1110508,"古山","069-1216","夕張郡由仁町字古山",42.975256,141.793969,11105,"JR室蘭本線(苫小牧～岩見沢)",1,"JR北海道"
1,1110509,"由仁","069-1216","夕張郡由仁町古山",43.012206,141.785868,11105,"JR室蘭本線(苫小牧～岩見沢)",1,"JR北海道"
1,1110510,"栗山","069-1511","夕張郡栗山町中央３丁目",43.058164,141.775603,11105,"JR室蘭本線(苫小牧～岩見沢)",1,"JR北海道"
1,1110511,"栗丘","068-0134","岩見沢市栗沢町栗丘",43.085444,141.744333,11105,"JR室蘭本線(苫小牧～岩見沢)",1,"JR北海道"
1,1110512,"栗沢","068-0127","岩見沢市栗沢町本町",43.120367,141.739743,11105,"JR室蘭本線(苫小牧～岩見沢)",1,"JR北海道"
1,1110513,"志文","068-0841","岩見沢市志文本町１条４丁目",43.158903,141.744443,11105,"JR室蘭本線(苫小牧～岩見沢)",1,"JR北海道"
1,1110514,"岩見沢","068-0034","岩見沢市有明町南",43.204201,141.759359,11105,"JR室蘭本線(苫小牧～岩見沢)",1,"JR北海道"
1,1110601,"滝川","073-0031","滝川市栄町４丁目",43.555278,141.900807,11106,"JR根室本線(滝川～新得)",1,"JR北海道"
1,1110602,"東滝川","073-0026","滝川市東滝川",43.574037,141.98031,11106,"JR根室本線(滝川～新得)",1,"JR北海道"
1,1110603,"赤平","079-1134","赤平市泉町１丁目",43.555144,142.048669,11106,"JR根室本線(滝川～新得)",1,"JR北海道"
1,1110604,"茂尻","079-1100","赤平市字茂尻町南２丁目",43.537314,142.082156,11106,"JR根室本線(滝川～新得)",1,"JR北海道"
1,1110605,"平岸","079-1282","北海道赤平市平岸仲町１丁目",43.541401,142.123872,11106,"JR根室本線(滝川～新得)",1,"JR北海道"
1,1110606,"芦別","075-0041","芦別市本町",43.516636,142.184543,11106,"JR根室本線(滝川～新得)",1,"JR北海道"
1,1110607,"上芦別","079-1371","芦別市上芦別町",43.48871,142.210855,11106,"JR根室本線(滝川～新得)",1,"JR北海道"
1,1110608,"野花南","079-1372","芦別市野花南町",43.474418,142.261772,11106,"JR根室本線(滝川～新得)",1,"JR北海道"
1,1110610,"富良野","076-0025","富良野市日の出町",43.347114,142.391374,11106,"JR根室本線(滝川～新得)",1,"JR北海道"
1,1110611,"布部","076-0004","富良野市字布部市街地",43.291991,142.400595,11106,"JR根室本線(滝川～新得)",1,"JR北海道"
1,1110612,"山部","079-1564","北海道富良野市字山部市山部中町",43.244645,142.381522,11106,"JR根室本線(滝川～新得)",1,"JR北海道"
1,1110613,"下金山","079-2132","空知郡南富良野町字下金山",43.197328,142.415402,11106,"JR根室本線(滝川～新得)",1,"JR北海道"
1,1110614,"金山","079-2131","空知郡南富良野町字金山",43.136115,142.416201,11106,"JR根室本線(滝川～新得)",1,"JR北海道"
1,1110615,"東鹿越","079-2411","空知郡南富良野町東鹿越",43.164011,142.523472,11106,"JR根室本線(滝川～新得)",1,"JR北海道"
1,1110616,"幾寅","079-2401","空知郡南富良野町幾寅仲町",43.161582,142.569474,11106,"JR根室本線(滝川～新得)",1,"JR北海道"
1,1110617,"落合","079-2551","空知郡南富良野町落合",43.125055,142.669104,11106,"JR根室本線(滝川～新得)",1,"JR北海道"
1,1110618,"新得","081-0005","上川郡新得町本通北１丁目",43.082501,142.832432,11106,"JR根室本線(滝川～新得)",1,"JR北海道"
1,1110701,"新得","081-0005","上川郡新得町本通北１丁目",43.082501,142.832432,11107,"JR根室本線(新得～釧路)",1,"JR北海道"
1,1110702,"十勝清水","089-0136","上川郡清水町本通１丁目",43.012892,142.879535,11107,"JR根室本線(新得～釧路)",1,"JR北海道"
1,1110704,"御影","089-0354","上川郡清水町御影本通り１丁目",42.942418,142.935739,11107,"JR根室本線(新得～釧路)",1,"JR北海道"
1,1110705,"芽室","082-0030","河西郡芽室町本通り１丁目",42.909846,143.047991,11107,"JR根室本線(新得～釧路)",1,"JR北海道"
1,1110706,"大成","082-0006","河西郡芽室町東芽室南２線",42.918662,143.071241,11107,"JR根室本線(新得～釧路)",1,"JR北海道"
1,1110707,"西帯広","080-2473","帯広市西２３条南１丁目",42.923941,143.126351,11107,"JR根室本線(新得～釧路)",1,"JR北海道"
1,1110708,"柏林台","080-0027","帯広市西１７条南１丁目",42.928877,143.1645,11107,"JR根室本線(新得～釧路)",1,"JR北海道"
1,1110709,"帯広","080-0012","帯広市西２条南１２丁目",42.917997,143.20195,11107,"JR根室本線(新得～釧路)",1,"JR北海道"
1,1110710,"札内","089-0543","中川郡幕別町字札内中央町",42.912697,143.256248,11107,"JR根室本線(新得～釧路)",1,"JR北海道"
1,1110712,"幕別","089-0604","中川郡幕別町錦町",42.90784,143.359293,11107,"JR根室本線(新得～釧路)",1,"JR北海道"
1,1110713,"利別","083-0031","中川郡池田町字利別西町",42.934706,143.424445,11107,"JR根室本線(新得～釧路)",1,"JR北海道"
1,1110714,"池田","083-0091","中川郡池田町東１条１丁目",42.922186,143.453033,11107,"JR根室本線(新得～釧路)",1,"JR北海道"
1,1110715,"十弗","089-5243","中川郡豊頃町字十弗宝町",42.855781,143.500797,11107,"JR根室本線(新得～釧路)",1,"JR北海道"
1,1110716,"豊頃","089-5232","中川郡豊頃町豊頃旭町",42.817548,143.538615,11107,"JR根室本線(新得～釧路)",1,"JR北海道"
1,1110717,"新吉野","089-5541","十勝郡浦幌町字吉野",42.778238,143.60826,11107,"JR根室本線(新得～釧路)",1,"JR北海道"
1,1110718,"浦幌","089-5603","十勝郡浦幌町字本町",42.810849,143.651568,11107,"JR根室本線(新得～釧路)",1,"JR北海道"
1,1110720,"厚内","089-5865","十勝郡浦幌町字厚内",42.809539,143.814389,11107,"JR根室本線(新得～釧路)",1,"JR北海道"
1,1110721,"直別","088-0135","釧路市音別町直別",42.852205,143.863607,11107,"JR根室本線(新得～釧路)",1,"JR北海道"
1,1110722,"尺別","088-0132","釧路市音別町尺別（岐線）",42.869163,143.904331,11107,"JR根室本線(新得～釧路)",1,"JR北海道"
1,1110723,"音別","088-0115","釧路市音別町本町１丁目",42.888997,143.932442,11107,"JR根室本線(新得～釧路)",1,"JR北海道"
1,1110724,"古瀬","088-0351","白糠郡白糠町和天別",42.947893,144.008589,11107,"JR根室本線(新得～釧路)",1,"JR北海道"
1,1110725,"白糠","088-0301","白糠郡白糠町東１条南１丁目",42.956161,144.076879,11107,"JR根室本線(新得～釧路)",1,"JR北海道"
1,1110726,"西庶路","088-0572","白糠郡白糠町西庶路西１条南３丁目",42.976138,144.129826,11107,"JR根室本線(新得～釧路)",1,"JR北海道"
1,1110727,"庶路","088-0563","白糠郡白糠町庶路甲区",42.983601,144.150018,11107,"JR根室本線(新得～釧路)",1,"JR北海道"
1,1110728,"大楽毛","084-0917","釧路市大楽毛５丁目",43.009078,144.273879,11107,"JR根室本線(新得～釧路)",1,"JR北海道"
1,1110729,"新大楽毛","084-0917","釧路市大楽毛１丁目",43.009423,144.295558,11107,"JR根室本線(新得～釧路)",1,"JR北海道"
1,1110730,"新富士","084-0904","釧路市新富士町３丁目",43.001605,144.350758,11107,"JR根室本線(新得～釧路)",1,"JR北海道"
1,1110731,"釧路","085-0015","釧路市北大通１４丁目",42.990584,144.381983,11107,"JR根室本線(新得～釧路)",1,"JR北海道"
1,1110801,"釧路","085-0015","釧路市北大通１４丁目",42.990584,144.381983,11108,"JR根室本線(釧路～根室)",1,"JR北海道"
1,1110802,"東釧路","085-0816","釧路市貝塚２丁目",42.995207,144.411307,11108,"JR根室本線(釧路～根室)",1,"JR北海道"
1,1110803,"武佐","085-0806","釧路市武佐４丁目",42.991364,144.426681,11108,"JR根室本線(釧路～根室)",1,"JR北海道"
1,1110804,"別保","088-0604","釧路郡釧路町字別保",42.994384,144.469596,11108,"JR根室本線(釧路～根室)",1,"JR北海道"
1,1110805,"上尾幌","088-0771","厚岸郡厚岸町字上尾幌市街",43.032893,144.61239,11108,"JR根室本線(釧路～根室)",1,"JR北海道"
1,1110806,"尾幌","088-0875","厚岸郡厚岸町大字苫多村字尾幌",43.018463,144.703758,11108,"JR根室本線(釧路～根室)",1,"JR北海道"
1,1110807,"門静","088-1126","厚岸郡厚岸町字門静",43.057581,144.782638,11108,"JR根室本線(釧路～根室)",1,"JR北海道"
1,1110808,"厚岸","088-1124","厚岸郡厚岸町字宮園町",43.056248,144.841355,11108,"JR根室本線(釧路～根室)",1,"JR北海道"
1,1110809,"糸魚沢","088-1101","厚岸郡厚岸町大字別寒辺牛村ベカンベウシ",43.103506,144.92545,11108,"JR根室本線(釧路～根室)",1,"JR北海道"
1,1110810,"茶内","088-1500","厚岸郡浜中町大字琵琶瀬村字茶内市街",43.129266,145.02801,11108,"JR根室本線(釧路～根室)",1,"JR北海道"
1,1110811,"浜中","088-1500","厚岸郡浜中町大字後静村字浜中市街",43.15754,145.099657,11108,"JR根室本線(釧路～根室)",1,"JR北海道"
1,1110812,"姉別","088-1500","厚岸郡浜中町大字後静村字姉別市街",43.196201,145.194716,11108,"JR根室本線(釧路～根室)",1,"JR北海道"
1,1110813,"厚床","086-0064","根室市厚床１丁目",43.228224,145.252096,11108,"JR根室本線(釧路～根室)",1,"JR北海道"
1,1110814,"初田牛","086-0076","根室市初田牛",43.204542,145.32277,11108,"JR根室本線(釧路～根室)",1,"JR北海道"
1,1110815,"別当賀","086-0075","根室市別当賀",43.218427,145.423593,11108,"JR根室本線(釧路～根室)",1,"JR北海道"
1,1110816,"落石","088-1782","根室市落石東",43.198335,145.519449,11108,"JR根室本線(釧路～根室)",1,"JR北海道"
1,1110817,"昆布盛","088-1784","根室市昆布盛",43.228593,145.542444,11108,"JR根室本線(釧路～根室)",1,"JR北海道"
1,1110818,"西和田","087-0033","根室市西和田",43.268043,145.541817,11108,"JR根室本線(釧路～根室)",1,"JR北海道"
1,1110820,"東根室","087-0004","根室市光洋町２丁目",43.323655,145.597234,11108,"JR根室本線(釧路～根室)",1,"JR北海道"
1,1110821,"根室","087-0027","根室市光和町２丁目",43.326923,145.582707,11108,"JR根室本線(釧路～根室)",1,"JR北海道"
1,1110901,"苫小牧","053-0022","苫小牧市表町６丁目",42.639665,141.596837,11109,"JR千歳線",1,"JR北海道"
1,1110902,"沼ノ端","059-1364","苫小牧市字沼ノ端",42.672057,141.693132,11109,"JR千歳線",1,"JR北海道"
1,1110903,"植苗","059-1365","苫小牧市字植苗",42.713645,141.735344,11109,"JR千歳線",1,"JR北海道"
1,1110905,"新千歳空港","066-0012","千歳市美々",42.787546,141.680823,11109,"JR千歳線",1,"JR北海道"
1,1110906,"南千歳","066-0044","千歳市字平和",42.80804,141.675388,11109,"JR千歳線",1,"JR北海道"
1,1110907,"千歳","066-0062","千歳市千代田町７丁目",42.82811,141.651934,11109,"JR千歳線",1,"JR北海道"
1,1110908,"長都","066-0077","千歳市上長都",42.852178,141.622987,11109,"JR千歳線",1,"JR北海道"
1,1110909,"サッポロビール庭園","061-1405","恵庭市戸磯",42.866812,141.605616,11109,"JR千歳線",1,"JR北海道"
1,1110910,"恵庭","061-1448","恵庭市相生町",42.883076,141.586234,11109,"JR千歳線",1,"JR北海道"
1,1110911,"恵み野","061-1373","恵庭市恵み野西１丁目",42.902704,141.574429,11109,"JR千歳線",1,"JR北海道"
1,1110912,"島松","061-1352","恵庭市島松仲町１丁目１-１",42.922504,141.573117,11109,"JR千歳線",1,"JR北海道"
1,1110913,"北広島","061-1121","北広島市中央６丁目",42.979239,141.563115,11109,"JR千歳線",1,"JR北海道"
1,1110914,"上野幌","004-0039","札幌市厚別区厚別町上野幌",43.016177,141.487317,11109,"JR千歳線",1,"JR北海道"
1,1110915,"新札幌","004-0052","札幌市厚別区厚別中央二条５丁目",43.038732,141.47237,11109,"JR千歳線",1,"JR北海道"
1,1110916,"平和","003-0029","札幌市白石区平和通１６丁目北",43.04695,141.437967,11109,"JR千歳線",1,"JR北海道"
1,1110917,"白石","003-0029","札幌市白石区平和通3丁目北6",43.054715,141.413612,11109,"JR千歳線",1,"JR北海道"
1,1110918,"苗穂","060-0033","札幌市中央区北３条東１３丁目",43.068574,141.377522,11109,"JR千歳線",1,"JR北海道"
1,1110919,"札幌","060-0806","札幌市北区北６条西４丁目",43.068612,141.350768,11109,"JR千歳線",1,"JR北海道"
1,1111001,"南千歳","066-0044","千歳市字平和",42.80804,141.675388,11110,"JR石勝線",1,"JR北海道"
1,1111002,"追分","059-1931","勇払郡安平町追分中央",42.873316,141.810678,11110,"JR石勝線",1,"JR北海道"
1,1111004,"川端","069-1141","夕張郡由仁町字川端",42.914721,141.894791,11110,"JR石勝線",1,"JR北海道"
1,1111005,"滝ノ上","068-0756","夕張市滝ノ上",42.910244,141.97628,11110,"JR石勝線",1,"JR北海道"
1,1111007,"新夕張","068-0755","夕張市紅葉山",42.936611,142.03657,11110,"JR石勝線",1,"JR北海道"
1,1111008,"沼ノ沢","068-0751","夕張市沼ノ沢",42.957586,142.030836,11110,"JR石勝線",1,"JR北海道"
1,1111009,"南清水沢","068-0536","夕張市南清水沢２丁目",42.985272,142.006597,11110,"JR石勝線",1,"JR北海道"
1,1111010,"清水沢","068-0531","夕張市清水沢３丁目",42.99827,142.007285,11110,"JR石勝線",1,"JR北海道"
1,1111011,"鹿ノ谷","068-0413","夕張市鹿の谷３丁目",43.039447,141.964476,11110,"JR石勝線",1,"JR北海道"
1,1111012,"夕張","068-0411","夕張市末広１丁目",43.050926,141.967472,11110,"JR石勝線",1,"JR北海道"
1,1111013,"占冠","079-2202","勇払郡占冠村占冠",42.993088,142.400078,11110,"JR石勝線",1,"JR北海道"
1,1111014,"トマム","079-2204","勇払郡占冠村字中トマム",43.055913,142.610937,11110,"JR石勝線",1,"JR北海道"
1,1111015,"新得","081-0005","上川郡新得町本通北１丁目",43.082501,142.832432,11110,"JR石勝線",1,"JR北海道"
1,1111101,"苫小牧","053-0022","苫小牧市表町６丁目",42.639665,141.596837,11111,"JR日高本線",1,"JR北海道"
1,1111102,"勇払","059-1372","苫小牧市字勇払",42.632805,141.727667,11111,"JR日高本線",1,"JR北海道"
1,1111103,"浜厚真","059-1742","勇払郡厚真町字浜厚真",42.606725,141.837071,11111,"JR日高本線",1,"JR北海道"
1,1111104,"浜田浦","054-0004","勇払郡むかわ町田浦",42.590722,141.88362,11111,"JR日高本線",1,"JR北海道"
1,1111105,"鵡川","054-0023","勇払郡むかわ町末広２丁目",42.578953,141.923892,11111,"JR日高本線",1,"JR北海道"
1,1111106,"汐見","054-0015","勇払郡むかわ町汐見",42.550235,141.945255,11111,"JR日高本線",1,"JR北海道"
1,1111107,"富川","055-0006","沙流郡日高町富川南４丁目",42.516865,142.020855,11111,"JR日高本線",1,"JR北海道"
1,1111108,"日高門別","059-2121","沙流郡日高町門別本町",42.481237,142.072692,11111,"JR日高本線",1,"JR北海道"
1,1111109,"豊郷","059-2126","沙流郡日高町豊郷",42.470119,142.122493,11111,"JR日高本線",1,"JR北海道"
1,1111110,"清畠","059-2245","沙流郡日高町清畠",42.455709,142.176624,11111,"JR日高本線",1,"JR北海道"
1,1111111,"厚賀","059-2243","沙流郡日高町厚賀町",42.430507,142.215896,11111,"JR日高本線",1,"JR北海道"
1,1111112,"大狩部","059-2253","新冠郡新冠町字大狩部",42.395695,142.259355,11111,"JR日高本線",1,"JR北海道"
1,1111113,"節婦","059-2412","新冠郡新冠町字節婦町",42.38248,142.275541,11111,"JR日高本線",1,"JR北海道"
1,1111114,"新冠","059-2400","新冠郡新冠町新冠字本町",42.360667,142.312585,11111,"JR日高本線",1,"JR北海道"
1,1111115,"静内","056-0016","日高郡新ひだか町静内本町５丁目",42.336559,142.360402,11111,"JR日高本線",1,"JR北海道"
1,1111117,"東静内","059-2561","日高郡新ひだか町東静内",42.304416,142.450485,11111,"JR日高本線",1,"JR北海道"
1,1111118,"春立","059-2565","日高郡新ひだか町静内春立",42.268515,142.498943,11111,"JR日高本線",1,"JR北海道"
1,1111119,"日高東別","059-2566","日高郡新ひだか町静内東別",42.280837,142.521371,11111,"JR日高本線",1,"JR北海道"
1,1111120,"日高三石","059-3107","日高郡新ひだか町三石旭町",42.247269,142.566859,11111,"JR日高本線",1,"JR北海道"
1,1111121,"蓬栄","059-3104","日高郡新ひだか町三石蓬栄",42.264636,142.604517,11111,"JR日高本線",1,"JR北海道"
1,1111122,"本桐","059-3231","日高郡新ひだか町三石本桐",42.248205,142.630455,11111,"JR日高本線",1,"JR北海道"
1,1111123,"荻伏","059-3451","浦河郡浦河町荻伏町",42.206136,142.689432,11111,"JR日高本線",1,"JR北海道"
1,1111124,"絵笛","057-0036","浦河郡浦河町絵笛",42.198428,142.736134,11111,"JR日高本線",1,"JR北海道"
1,1111125,"浦河","057-0022","浦河郡浦河町昌平町",42.168366,142.769976,11111,"JR日高本線",1,"JR北海道"
1,1111126,"東町","057-0005","浦河郡浦河町東町うしお１丁目",42.156037,142.788931,11111,"JR日高本線",1,"JR北海道"
1,1111127,"日高幌別","057-0002","浦河郡浦河町字西幌別",42.142338,142.834519,11111,"JR日高本線",1,"JR北海道"
1,1111128,"鵜苫","058-0033","様似郡様似町鵜苫",42.134449,142.882513,11111,"JR日高本線",1,"JR北海道"
1,1111129,"西様似","058-0032","様似郡様似町西町",42.138411,142.908737,11111,"JR日高本線",1,"JR北海道"
1,1111130,"様似","058-0014","様似郡様似町大通１丁目",42.127936,142.93596,11111,"JR日高本線",1,"JR北海道"
1,1111201,"札幌","060-0806","札幌市北区北６条西４丁目",43.068612,141.350768,11112,"JR札沼線",1,"JR北海道"
1,1111202,"桑園","060-0011","札幌市中央区北１１条西１５丁目",43.070744,141.332036,11112,"JR札沼線",1,"JR北海道"
1,1111203,"八軒","063-0866","札幌市西区八軒６条東２丁目",43.085845,141.319145,11112,"JR札沼線",1,"JR北海道"
1,1111204,"新川","001-0924","札幌市北区新川四条１丁目",43.098604,141.323824,11112,"JR札沼線",1,"JR北海道"
1,1111205,"新琴似","001-0908","札幌市北区新琴似８条１丁目",43.112928,141.335105,11112,"JR札沼線",1,"JR北海道"
1,1111206,"太平","002-8002","札幌市北区太平２条５丁目",43.12401,141.349526,11112,"JR札沼線",1,"JR北海道"
1,1111207,"百合が原","002-8051","札幌市北区篠路町太平中央",43.131476,141.360672,11112,"JR札沼線",1,"JR北海道"
1,1111208,"篠路","002-8024","札幌市北区篠路４条７丁目",43.145152,141.364323,11112,"JR札沼線",1,"JR北海道"
1,1111209,"拓北","002-8066","札幌市北区拓北６条３丁目",43.155568,141.381013,11112,"JR札沼線",1,"JR北海道"
1,1111210,"あいの里教育大","002-8071","札幌市北区あいの里１条５丁目",43.15528,141.39842,11112,"JR札沼線",1,"JR北海道"
1,1111211,"あいの里公園","002-8072","札幌市北区あいの里２条８丁目",43.161206,141.413276,11112,"JR札沼線",1,"JR北海道"
1,1111212,"石狩太美","061-3776","石狩郡当別町太美町",43.189801,141.449066,11112,"JR札沼線",1,"JR北海道"
1,1111213,"石狩当別","061-0226","石狩郡当別町字錦町",43.22208,141.513764,11112,"JR札沼線",1,"JR北海道"
1,1111214,"北海道医療大学","061-0212","石狩郡当別町字金沢",43.230925,141.54995,11112,"JR札沼線",1,"JR北海道"
1,1111215,"石狩金沢","061-0212","石狩郡当別町字金沢",43.245385,141.569239,11112,"JR札沼線",1,"JR北海道"
1,1111216,"本中小屋","061-0211","石狩郡当別町字中小屋",43.28019,141.591661,11112,"JR札沼線",1,"JR北海道"
1,1111217,"中小屋","061-0211","石狩郡当別町字中小屋",43.306846,141.602341,11112,"JR札沼線",1,"JR北海道"
1,1111218,"月ケ岡","061-0500","北海道樺戸郡月形町字月ヶ岡",43.324867,141.61807,11112,"JR札沼線",1,"JR北海道"
1,1111219,"知来乙","061-0516","樺戸郡月形町字知来乙",43.331545,141.649123,11112,"JR札沼線",1,"JR北海道"
1,1111220,"石狩月形","061-0518","樺戸郡月形町赤川",43.340869,141.670193,11112,"JR札沼線",1,"JR北海道"
1,1111221,"豊ケ岡","061-0500","北海道樺戸郡月形町字豊ケ丘",43.366645,141.714026,11112,"JR札沼線",1,"JR北海道"
1,1111222,"札比内","061-0505","樺戸郡月形町字札比内",43.370926,141.742762,11112,"JR札沼線",1,"JR北海道"
1,1111223,"晩生内","061-0622","樺戸郡浦臼町字晩生内第２",43.399921,141.779211,11112,"JR札沼線",1,"JR北海道"
1,1111224,"札的","061-0600","樺戸郡浦臼町字浦臼内",43.419153,141.803549,11112,"JR札沼線",1,"JR北海道"
1,1111225,"浦臼","061-0600","樺戸郡浦臼町字浦臼内",43.430964,141.817376,11112,"JR札沼線",1,"JR北海道"
1,1111226,"鶴沼","061-0600","樺戸郡浦臼町字於礼内",43.457673,141.840637,11112,"JR札沼線",1,"JR北海道"
1,1111227,"於札内","061-0600","樺戸郡浦臼町字オサツナイ",43.473424,141.840102,11112,"JR札沼線",1,"JR北海道"
1,1111228,"南下徳富","073-1105","樺戸郡新十津川町字花月",43.485542,141.844454,11112,"JR札沼線",1,"JR北海道"
1,1111229,"下徳富","073-1105","樺戸郡新十津川町字花月",43.50271,141.855574,11112,"JR札沼線",1,"JR北海道"
1,1111230,"新十津川","073-1103","樺戸郡新十津川町字中央",43.545575,141.874172,11112,"JR札沼線",1,"JR北海道"
1,1111301,"深川","074-0001","深川市１条",43.721021,142.041642,11113,"JR留萌本線",1,"JR北海道"
1,1111302,"北一已","074-0028","深川市一已町一已",43.742021,142.014721,11113,"JR留萌本線",1,"JR北海道"
1,1111303,"秩父別","078-2100","雨竜郡秩父別町２６区",43.769099,141.967757,11113,"JR留萌本線",1,"JR北海道"
1,1111304,"北秩父別","078-2106","雨竜郡秩父別町６条１丁目",43.789375,141.960915,11113,"JR留萌本線",1,"JR北海道"
1,1111305,"石狩沼田","078-2222","雨竜郡沼田町沼田",43.810032,141.934266,11113,"JR留萌本線",1,"JR北海道"
1,1111306,"真布","078-2221","雨竜郡沼田町字真布",43.832965,141.906756,11113,"JR留萌本線",1,"JR北海道"
1,1111307,"恵比島","078-2224","雨竜郡沼田町字恵比島",43.851296,141.88144,11113,"JR留萌本線",1,"JR北海道"
1,1111308,"峠下","078-3161","留萌市留萌村峠下",43.850789,141.818879,11113,"JR留萌本線",1,"JR北海道"
1,1111309,"幌糠","078-3168","留萌市幌糠町幌糠",43.855521,141.758418,11113,"JR留萌本線",1,"JR北海道"
1,1111310,"藤山","078-3165","留萌市藤山町藤山",43.88708,141.720588,11113,"JR留萌本線",1,"JR北海道"
1,1111311,"大和田","077-0012","留萌市大和田",43.913418,141.696528,11113,"JR留萌本線",1,"JR北海道"
1,1111312,"留萌","077-0005","留萌市船場町２丁目",43.942848,141.651433,11113,"JR留萌本線",1,"JR北海道"
1,1111401,"旭川","070-0030","旭川市宮下通８丁目",43.763492,142.357803,11114,"JR富良野線",1,"JR北海道"
1,1111402,"神楽岡","078-8314","旭川市神楽岡４条１４丁目",43.745033,142.358257,11114,"JR富良野線",1,"JR北海道"
1,1111403,"緑が丘","078-8323","旭川市神楽岡１３条９丁目",43.731074,142.365701,11114,"JR富良野線",1,"JR北海道"
1,1111404,"西御料","078-8381","旭川市西神楽一線５号",43.720834,142.371507,11114,"JR富良野線",1,"JR北海道"
1,1111405,"西瑞穂","078-8381","旭川市西神楽一線９号",43.70242,142.381982,11114,"JR富良野線",1,"JR北海道"
1,1111406,"西神楽","071-0171","旭川市西神楽南１条１丁目",43.682181,142.393677,11114,"JR富良野線",1,"JR北海道"
1,1111407,"西聖和","078-8382","旭川市西神楽二線１７号",43.669047,142.415209,11114,"JR富良野線",1,"JR北海道"
1,1111408,"千代ケ岡","078-8381","北海道旭川市西神楽1線24号",43.643737,142.451024,11114,"JR富良野線",1,"JR北海道"
1,1111409,"北美瑛","071-0226","上川郡美瑛町字下宇莫別",43.617884,142.479594,11114,"JR富良野線",1,"JR北海道"
1,1111410,"美瑛","071-0208","上川郡美瑛町本町１丁目",43.591186,142.461639,11114,"JR富良野線",1,"JR北海道"
1,1111411,"美馬牛","071-0471","上川郡美瑛町字美馬牛",43.537408,142.447192,11114,"JR富良野線",1,"JR北海道"
1,1111412,"上富良野","071-0543","空知郡上富良野町中町１丁目",43.464046,142.468761,11114,"JR富良野線",1,"JR北海道"
1,1111413,"西中","071-0704","空知郡中富良野町基線北１８号",43.429569,142.441876,11114,"JR富良野線",1,"JR北海道"
1,1111414,"ラベンダー畑","071-0704","空知郡中富良野町基線北１５号",43.42065,142.434032,11114,"JR富良野線",1,"JR北海道"
1,1111415,"中富良野","071-0700","空知郡中富良野町市街地",43.405704,142.420812,11114,"JR富良野線",1,"JR北海道"
1,1111416,"鹿討","071-0700","空知郡中富良野町字富良野基線北８号",43.387499,142.404812,11114,"JR富良野線",1,"JR北海道"
1,1111417,"学田","076-0047","富良野市字西学田二区",43.366234,142.386118,11114,"JR富良野線",1,"JR北海道"
1,1111418,"富良野","076-0025","富良野市日の出町",43.347114,142.391374,11114,"JR富良野線",1,"JR北海道"
1,1111501,"旭川","070-0030","旭川市宮下通８丁目",43.763492,142.357803,11115,"JR宗谷本線",1,"JR北海道"
1,1111502,"旭川四条","078-8214","旭川市四条通１８丁目",43.764056,142.375815,11115,"JR宗谷本線",1,"JR北海道"
1,1111503,"新旭川","070-0028","旭川市東八条６丁目",43.780174,142.384789,11115,"JR宗谷本線",1,"JR北海道"
1,1111504,"永山","079-8411","旭川市永山１条１９丁目",43.814158,142.434382,11115,"JR宗谷本線",1,"JR北海道"
1,1111505,"北永山","079-8431","旭川市永山町１５丁目",43.826736,142.454493,11115,"JR宗谷本線",1,"JR北海道"
1,1111506,"南比布","078-0311","上川郡比布町南１線５号",43.853342,142.467271,11115,"JR宗谷本線",1,"JR北海道"
1,1111507,"比布","078-0341","上川郡比布町市街地",43.874478,142.471294,11115,"JR宗谷本線",1,"JR北海道"
1,1111508,"北比布","078-0325","上川郡比布町北５線１０号",43.901728,142.476545,11115,"JR宗谷本線",1,"JR北海道"
1,1111509,"蘭留","078-0329","上川郡比布町北９線１４号",43.925072,142.473699,11115,"JR宗谷本線",1,"JR北海道"
1,1111510,"塩狩","098-0125","上川郡和寒町塩狩",43.96794,142.4552,11115,"JR宗谷本線",1,"JR北海道"
1,1111511,"和寒","098-0133","上川郡和寒町北町",44.026932,142.415309,11115,"JR宗谷本線",1,"JR北海道"
1,1111512,"東六線","098-0300","上川郡剣淵町第１０区",44.068723,142.388073,11115,"JR宗谷本線",1,"JR北海道"
1,1111513,"剣淵","098-0300","上川郡剣淵町栄町",44.09643,142.364754,11115,"JR宗谷本線",1,"JR北海道"
1,1111514,"北剣淵","098-0300","上川郡剣淵町第１３区",44.139423,142.377955,11115,"JR宗谷本線",1,"JR北海道"
1,1111515,"士別","095-0023","士別市西３条８丁目",44.172536,142.388247,11115,"JR宗谷本線",1,"JR北海道"
1,1111516,"下士別","095-0061","士別市下士別町",44.210583,142.396405,11115,"JR宗谷本線",1,"JR北海道"
1,1111517,"多寄","098-0475","士別市多寄町３６線東",44.241296,142.396315,11115,"JR宗谷本線",1,"JR北海道"
1,1111518,"瑞穂","098-0475","士別市多寄町３１線東",44.266349,142.396244,11115,"JR宗谷本線",1,"JR北海道"
1,1111519,"風連","098-0504","名寄市風連町本町",44.292238,142.421624,11115,"JR宗谷本線",1,"JR北海道"
1,1111520,"東風連","098-0512","名寄市風連町東風連",44.316748,142.463087,11115,"JR宗谷本線",1,"JR北海道"
1,1111521,"名寄","096-0001","名寄市東１条南６丁目",44.349403,142.465207,11115,"JR宗谷本線",1,"JR北海道"
1,1111522,"日進","096-0066","名寄市字日進",44.381713,142.467354,11115,"JR宗谷本線",1,"JR北海道"
1,1111523,"北星","098-2181","名寄市智恵文北星",44.441569,142.428116,11115,"JR宗谷本線",1,"JR北海道"
1,1111524,"智恵文","098-2181","名寄市智恵文１１線",44.455553,142.414772,11115,"JR宗谷本線",1,"JR北海道"
1,1111525,"智北","098-2181","名寄市字智恵文",44.46103,142.394007,11115,"JR宗谷本線",1,"JR北海道"
1,1111526,"南美深","098-2205","中川郡美深町字美深",44.462604,142.367822,11115,"JR宗谷本線",1,"JR北海道"
1,1111527,"美深","098-2238","中川郡美深町字開運町",44.482951,142.350597,11115,"JR宗谷本線",1,"JR北海道"
1,1111528,"初野","098-2211","中川郡美深町字富岡",44.512808,142.336129,11115,"JR宗谷本線",1,"JR北海道"
1,1111529,"紋穂内","098-2366","中川郡美深町字紋穂内",44.538761,142.33357,11115,"JR宗谷本線",1,"JR北海道"
1,1111530,"恩根内","098-2361","中川郡美深町字恩根内",44.598486,142.309447,11115,"JR宗谷本線",1,"JR北海道"
1,1111531,"豊清水","098-2368","中川郡美深町字清水",44.639503,142.270342,11115,"JR宗谷本線",1,"JR北海道"
1,1111532,"天塩川温泉","098-2502","中川郡音威子府村字咲来",44.665041,142.258682,11115,"JR宗谷本線",1,"JR北海道"
1,1111533,"咲来","098-2502","中川郡音威子府村字咲来",44.692702,142.267569,11115,"JR宗谷本線",1,"JR北海道"
1,1111534,"音威子府","098-2501","中川郡音威子府村字音威子府",44.729448,142.259883,11115,"JR宗谷本線",1,"JR北海道"
1,1111535,"筬島","098-2500","中川郡音威子府村字物満内",44.738883,142.197777,11115,"JR宗谷本線",1,"JR北海道"
1,1111536,"佐久","098-2622","中川郡中川町字佐久",44.743986,142.048562,11115,"JR宗谷本線",1,"JR北海道"
1,1111537,"天塩中川","098-2802","中川郡中川町字中川",44.81186,142.075335,11115,"JR宗谷本線",1,"JR北海道"
1,1111538,"歌内","098-2801","中川郡中川町字歌内",44.880493,142.052162,11115,"JR宗谷本線",1,"JR北海道"
1,1111539,"問寒別","098-2943","天塩郡幌延町字問寒別",44.91233,142.025562,11115,"JR宗谷本線",1,"JR北海道"
1,1111540,"糠南","098-3200","天塩郡幌延町字糠南",44.920778,142.000931,11115,"JR宗谷本線",1,"JR北海道"
1,1111541,"雄信内","098-3151","天塩郡幌延町字雄興",44.911735,141.935888,11115,"JR宗谷本線",1,"JR北海道"
1,1111542,"安牛","098-3226","天塩郡幌延町字開進",44.949809,141.894187,11115,"JR宗谷本線",1,"JR北海道"
1,1111543,"南幌延","098-3200","天塩郡幌延町字南幌延",44.965084,141.884892,11115,"JR宗谷本線",1,"JR北海道"
1,1111544,"上幌延","098-3225","天塩郡幌延町字上幌延",44.985787,141.880905,11115,"JR宗谷本線",1,"JR北海道"
1,1111545,"幌延","098-3211","天塩郡幌延町１条南１丁目",45.014503,141.84569,11115,"JR宗谷本線",1,"JR北海道"
1,1111546,"下沼","098-3228","天塩郡幌延町字下沼",45.037146,141.758218,11115,"JR宗谷本線",1,"JR北海道"
1,1111547,"豊富","098-4100","天塩郡豊富町字上サロベツ",45.104624,141.772088,11115,"JR宗谷本線",1,"JR北海道"
1,1111548,"徳満","098-4137","天塩郡豊富町字徳満",45.145838,141.751039,11115,"JR宗谷本線",1,"JR北海道"
1,1111549,"兜沼","098-4451","天塩郡豊富町字兜沼",45.220236,141.6972,11115,"JR宗谷本線",1,"JR北海道"
1,1111550,"勇知","098-4581","稚内市字抜海村上勇知",45.259339,141.685151,11115,"JR宗谷本線",1,"JR北海道"
1,1111551,"抜海","097-0036","稚内市字抜海村クトネベツ",45.316866,141.644576,11115,"JR宗谷本線",1,"JR北海道"
1,1111552,"南稚内","097-0005","稚内市大黒１丁目",45.398166,141.683026,11115,"JR宗谷本線",1,"JR北海道"
1,1111553,"稚内","097-0022","稚内市中央３丁目",45.416995,141.676999,11115,"JR宗谷本線",1,"JR北海道"
1,1111601,"旭川","070-0030","旭川市宮下通８丁目",43.763492,142.357803,11116,"JR石北本線",1,"JR北海道"
1,1111602,"旭川四条","078-8214","旭川市四条通１８丁目",43.764056,142.375815,11116,"JR石北本線",1,"JR北海道"
1,1111603,"新旭川","070-0028","旭川市東八条６丁目",43.780174,142.384789,11116,"JR石北本線",1,"JR北海道"
1,1111604,"南永山","079-8420","旭川市永山十条３丁目",43.78055,142.40853,11116,"JR石北本線",1,"JR北海道"
1,1111605,"東旭川","078-8253","旭川市東旭川北三条５丁目",43.776571,142.441544,11116,"JR石北本線",1,"JR北海道"
1,1111606,"北日ノ出","078-8203","旭川市東旭川町日ノ出",43.781813,142.466127,11116,"JR石北本線",1,"JR北海道"
1,1111607,"桜岡","078-8204","旭川市東旭川町桜岡",43.801812,142.486968,11116,"JR石北本線",1,"JR北海道"
1,1111608,"当麻","078-1300","上川郡当麻町市街",43.825477,142.516987,11116,"JR石北本線",1,"JR北海道"
1,1111609,"将軍山","078-1334","上川郡当麻町北星２区",43.857455,142.521559,11116,"JR石北本線",1,"JR北海道"
1,1111610,"伊香牛","078-1333","上川郡当麻町伊香牛",43.876025,142.525227,11116,"JR石北本線",1,"JR北海道"
1,1111611,"愛別","078-1401","上川郡愛別町字愛別",43.898635,142.582176,11116,"JR石北本線",1,"JR北海道"
1,1111612,"中愛別","078-1652","上川郡愛別町字中央",43.896216,142.655424,11116,"JR石北本線",1,"JR北海道"
1,1111613,"愛山","078-1653","上川郡愛別町字愛山",43.866442,142.680699,11116,"JR石北本線",1,"JR北海道"
1,1111614,"安足間","078-1653","上川郡愛別町字愛山",43.852011,142.693868,11116,"JR石北本線",1,"JR北海道"
1,1111615,"東雲","078-1731","上川郡上川町東雲",43.843693,142.716544,11116,"JR石北本線",1,"JR北海道"
1,1111616,"上川","078-1741","上川郡上川町中央町",43.848508,142.766895,11116,"JR石北本線",1,"JR北海道"
1,1111618,"白滝","099-0111","紋別郡遠軽町白滝",43.884435,143.180795,11116,"JR石北本線",1,"JR北海道"
1,1111621,"丸瀬布","099-0203","紋別郡遠軽町丸瀬布中町",44.006354,143.335817,11116,"JR石北本線",1,"JR北海道"
1,1111622,"瀬戸瀬","099-0342","紋別郡遠軽町字瀬戸瀬西町",44.008753,143.420937,11116,"JR石北本線",1,"JR北海道"
1,1111623,"遠軽","099-0415","紋別郡遠軽町岩見通南１丁目",44.060278,143.520667,11116,"JR石北本線",1,"JR北海道"
1,1111624,"安国","099-0622","紋別郡遠軽町生田原安国",43.993322,143.535762,11116,"JR石北本線",1,"JR北海道"
1,1111625,"生野","099-0701","紋別郡遠軽町生田原",43.959928,143.532945,11116,"JR石北本線",1,"JR北海道"
1,1111626,"生田原","099-0701","紋別郡遠軽町生田原",43.923674,143.534627,11116,"JR石北本線",1,"JR北海道"
1,1111628,"西留辺蘂","091-0027","北見市留辺蘂町旭西３３４番地の１",43.785345,143.603257,11116,"JR石北本線",1,"JR北海道"
1,1111629,"留辺蘂","091-0002","北見市留辺蘂町東町",43.785534,143.621394,11116,"JR石北本線",1,"JR北海道"
1,1111630,"相内","099-0871","北見市相内町",43.795948,143.756449,11116,"JR石北本線",1,"JR北海道"
1,1111631,"東相内","099-0878","北見市東相内町",43.805466,143.809499,11116,"JR石北本線",1,"JR北海道"
1,1111632,"西北見","090-0055","北見市緑町６丁目",43.803114,143.841586,11116,"JR石北本線",1,"JR北海道"
1,1111633,"北見","090-0040","北見市大通西１丁目",43.805504,143.898167,11116,"JR石北本線",1,"JR北海道"
1,1111634,"柏陽","090-0012","北見市並木町",43.824911,143.916737,11116,"JR石北本線",1,"JR北海道"
1,1111635,"愛し野","099-2103","北見市端野町三区",43.841426,143.932962,11116,"JR石北本線",1,"JR北海道"
1,1111636,"端野","099-2104","北見市端野町端野",43.851172,143.942336,11116,"JR石北本線",1,"JR北海道"
1,1111637,"緋牛内","099-2231","北見市端野町緋牛内",43.880431,143.999887,11116,"JR石北本線",1,"JR北海道"
1,1111638,"美幌","092-0015","網走郡美幌町字新町３丁目",43.836967,144.10563,11116,"JR石北本線",1,"JR北海道"
1,1111639,"西女満別","099-2301","網走郡大空町女満別本郷",43.880057,144.148372,11116,"JR石北本線",1,"JR北海道"
1,1111640,"女満別","099-2310","網走郡大空町女満別本通１丁目",43.915886,144.170665,11116,"JR石北本線",1,"JR北海道"
1,1111641,"呼人","099-2421","網走市呼人",43.963695,144.218945,11116,"JR石北本線",1,"JR北海道"
1,1111642,"網走","093-0046","網走市新町２丁目",44.019873,144.254156,11116,"JR石北本線",1,"JR北海道"
1,1111701,"網走","093-0046","網走市新町２丁目",44.019873,144.254156,11117,"JR釧網本線",1,"JR北海道"
1,1111702,"桂台","093-0031","網走市台町１丁目",44.016913,144.273223,11117,"JR釧網本線",1,"JR北海道"
1,1111703,"鱒浦","099-3119","網走市字鱒浦",43.982481,144.296526,11117,"JR釧網本線",1,"JR北海道"
1,1111704,"藻琴","099-3111","網走市字藻琴",43.968358,144.320079,11117,"JR釧網本線",1,"JR北海道"
1,1111705,"北浜","099-3112","網走市字北浜",43.958549,144.352541,11117,"JR釧網本線",1,"JR北海道"
1,1111706,"原生花園","099-3452","斜里郡小清水町浜小清水",43.941033,144.41443,11117,"JR釧網本線",1,"JR北海道"
1,1111707,"浜小清水","099-3452","斜里郡小清水町字浜小清水",43.934077,144.453187,11117,"JR釧網本線",1,"JR北海道"
1,1111708,"止別","099-3454","斜里郡小清水町字止別",43.921558,144.519818,11117,"JR釧網本線",1,"JR北海道"
1,1111709,"知床斜里","099-4112","斜里郡斜里町港町",43.910749,144.661647,11117,"JR釧網本線",1,"JR北海道"
1,1111710,"中斜里","099-4142","斜里郡斜里町字中斜里",43.874608,144.659033,11117,"JR釧網本線",1,"JR北海道"
1,1111711,"南斜里","099-4143","斜里郡斜里町字川上",43.867531,144.63431,11117,"JR釧網本線",1,"JR北海道"
1,1111712,"清里町","099-4406","斜里郡清里町水元町",43.83871,144.593948,11117,"JR釧網本線",1,"JR北海道"
1,1111713,"札弦","099-4521","斜里郡清里町札弦町",43.786574,144.531526,11117,"JR釧網本線",1,"JR北海道"
1,1111714,"緑","099-4525","斜里郡清里町緑町",43.718282,144.505499,11117,"JR釧網本線",1,"JR北海道"
1,1111715,"川湯温泉","088-3462","川上郡弟子屈町字川湯駅前",43.616258,144.457749,11117,"JR釧網本線",1,"JR北海道"
1,1111716,"美留和","088-3331","川上郡弟子屈町字美留和",43.555316,144.437656,11117,"JR釧網本線",1,"JR北海道"
1,1111717,"摩周","088-3204","川上郡弟子屈町字朝日１丁目",43.487373,144.463981,11117,"JR釧網本線",1,"JR北海道"
1,1111718,"南弟子屈","088-3200","川上郡弟子屈町字熊牛原野",43.428656,144.514729,11117,"JR釧網本線",1,"JR北海道"
1,1111719,"磯分内","088-2300","川上郡標茶町字熊牛原野",43.379389,144.554322,11117,"JR釧網本線",1,"JR北海道"
1,1111720,"標茶","088-2314","川上郡標茶町字標茶",43.298472,144.608434,11117,"JR釧網本線",1,"JR北海道"
1,1111722,"茅沼","088-2265","川上郡標茶町シラルトロエトロ",43.202097,144.503788,11117,"JR釧網本線",1,"JR北海道"
1,1111723,"塘路","088-2261","川上郡標茶町字塘路",43.151739,144.496817,11117,"JR釧網本線",1,"JR北海道"
1,1111724,"細岡","088-2148","釧路郡釧路町字鳥通牛原野",43.105055,144.469683,11117,"JR釧網本線",1,"JR北海道"
1,1111725,"釧路湿原","088-2148","釧路郡釧路町鳥通原野",43.100647,144.447799,11117,"JR釧網本線",1,"JR北海道"
1,1111726,"遠矢","088-2145","釧路郡釧路町字遠矢",43.047878,144.458367,11117,"JR釧網本線",1,"JR北海道"
1,1111727,"東釧路","085-0816","釧路市貝塚２丁目",42.995207,144.411307,11117,"JR釧網本線",1,"JR北海道"
1,1111728,"釧路","085-0015","釧路市北大通１４丁目",42.990584,144.381983,11117,"JR釧網本線",1,"JR北海道"
2,1111801,"中小国","030-1305","東津軽郡外ヶ浜町蟹田小国",41.051702,140.596798,11118,"JR海峡線",1,"JR北海道"
2,1111802,"津軽今別","030-1505","東津軽郡今別町大字大川平",41.144885,140.515625,11118,"JR海峡線",1,"JR北海道"
1,1111806,"木古内","049-0422","上磯郡木古内町本町",41.677642,140.434004,11118,"JR海峡線",1,"JR北海道"
1,1111910,"木古内","049-0422","上磯郡木古内町本町",41.677642,140.434004,99108,"道南いさりび鉄道線",248,"道南いさりび鉄道"
1,1111911,"札苅","049-0411","上磯郡木古内町字札苅",41.699271,140.468097,99108,"道南いさりび鉄道線",248,"道南いさりび鉄道"
1,1111912,"泉沢","049-0405","上磯郡木古内町字泉沢",41.700867,140.506797,99108,"道南いさりび鉄道線",248,"道南いさりび鉄道"
1,1111913,"釜谷","049-0403","上磯郡木古内町字釜谷",41.712153,140.53718,99108,"道南いさりび鉄道線",248,"道南いさりび鉄道"
1,1111914,"渡島当別","049-0282","北斗市当別",41.737309,140.579109,99108,"道南いさりび鉄道線",248,"道南いさりび鉄道"
1,1111915,"茂辺地","049-0281","北斗市茂辺地",41.766604,140.600561,99108,"道南いさりび鉄道線",248,"道南いさりび鉄道"
1,1111916,"上磯","049-0161","北斗市飯生",41.81956,140.640599,99108,"道南いさりび鉄道線",248,"道南いさりび鉄道"
1,1111917,"清川口","049-0100","北斗市会所町",41.824615,140.652906,99108,"道南いさりび鉄道線",248,"道南いさりび鉄道"
1,1111918,"久根別","049-0121","北斗市久根別",41.826727,140.666468,99108,"道南いさりび鉄道線",248,"道南いさりび鉄道"
1,1111919,"東久根別","049-0121","北斗市久根別",41.826005,140.679731,99108,"道南いさりび鉄道線",248,"道南いさりび鉄道"
1,1111920,"七重浜","049-0111","北斗市七重浜２丁目",41.817643,140.707957,99108,"道南いさりび鉄道線",248,"道南いさりび鉄道"
1,1111921,"五稜郭","041-0813","函館市亀田本町",41.803557,140.733539,99108,"道南いさりび鉄道線",248,"道南いさりび鉄道"
1,1111922,"函館","040-0063","北海道函館市若松町",41.773709,140.726413,99108,"道南いさりび鉄道線",248,"道南いさりび鉄道"
6,1120201,"新庄","996-0024","新庄市多門町",38.76256,140.306064,11202,"JR奥羽本線(新庄～青森)",2,"JR東日本"
6,1120202,"泉田","999-5103","新庄市大字泉田",38.811758,140.310039,11202,"JR奥羽本線(新庄～青森)",2,"JR東日本"
6,1120203,"羽前豊里","999-5208","最上郡鮭川村大字石名坂",38.836748,140.242247,11202,"JR奥羽本線(新庄～青森)",2,"JR東日本"
6,1120204,"真室川","999-5312","最上郡真室川町大字新町",38.858243,140.254814,11202,"JR奥羽本線(新庄～青森)",2,"JR東日本"
6,1120205,"釜淵","999-5604","最上郡真室川町大字釜淵",38.93281,140.263864,11202,"JR奥羽本線(新庄～青森)",2,"JR東日本"
6,1120206,"大滝","999-5603","最上郡真室川町大字大滝",38.971485,140.320199,11202,"JR奥羽本線(新庄～青森)",2,"JR東日本"
6,1120207,"及位","999-5602","最上郡真室川町大字及位",38.992983,140.361164,11202,"JR奥羽本線(新庄～青森)",2,"JR東日本"
5,1120208,"院内","019-0111","湯沢市上院内",39.049706,140.4138,11202,"JR奥羽本線(新庄～青森)",2,"JR東日本"
5,1120209,"横堀","019-0205","湯沢市小野",39.064533,140.45131,11202,"JR奥羽本線(新庄～青森)",2,"JR東日本"
5,1120210,"三関","012-0864","湯沢市上関",39.110196,140.483796,11202,"JR奥羽本線(新庄～青森)",2,"JR東日本"
5,1120211,"上湯沢","012-0862","湯沢市関口",39.134221,140.485262,11202,"JR奥羽本線(新庄～青森)",2,"JR東日本"
5,1120212,"湯沢","012-0827","湯沢市表町",39.163443,140.487011,11202,"JR奥羽本線(新庄～青森)",2,"JR東日本"
5,1120213,"下湯沢","012-0802","湯沢市成沢",39.197196,140.50249,11202,"JR奥羽本線(新庄～青森)",2,"JR東日本"
5,1120214,"十文字","019-0527","横手市十文字町字大道東",39.221186,140.526287,11202,"JR奥羽本線(新庄～青森)",2,"JR東日本"
5,1120215,"醍醐","013-0102","横手市平鹿町醍醐",39.248716,140.53853,11202,"JR奥羽本線(新庄～青森)",2,"JR東日本"
5,1120216,"柳田","013-0054","横手市柳田",39.276385,140.553856,11202,"JR奥羽本線(新庄～青森)",2,"JR東日本"
5,1120217,"横手","013-0036","横手市駅前町",39.310146,140.5604,11202,"JR奥羽本線(新庄～青森)",2,"JR東日本"
5,1120218,"後三年","019-1234","仙北郡美郷町飯詰",39.364891,140.538397,11202,"JR奥羽本線(新庄～青森)",2,"JR東日本"
5,1120219,"飯詰","019-1236","仙北郡美郷町上深井",39.406013,140.515378,11202,"JR奥羽本線(新庄～青森)",2,"JR東日本"
5,1120220,"大曲","014-0027","大仙市大曲通町",39.465712,140.479628,11202,"JR奥羽本線(新庄～青森)",2,"JR東日本"
5,1120221,"神宮寺","019-1701","大仙市神宮寺",39.494841,140.426518,11202,"JR奥羽本線(新庄～青森)",2,"JR東日本"
5,1120222,"刈和野","019-2112","大仙市刈和野",39.547646,140.372402,11202,"JR奥羽本線(新庄～青森)",2,"JR東日本"
5,1120223,"峰吉川","019-2431","大仙市協和峰吉川",39.566586,140.32314,11202,"JR奥羽本線(新庄～青森)",2,"JR東日本"
5,1120224,"羽後境","019-2411","大仙市協和境",39.618679,140.320722,11202,"JR奥羽本線(新庄～青森)",2,"JR東日本"
5,1120225,"大張野","019-2631","秋田市河辺神内",39.663347,140.274071,11202,"JR奥羽本線(新庄～青森)",2,"JR東日本"
5,1120226,"和田","019-2601","秋田市河辺和田",39.65087,140.218754,11202,"JR奥羽本線(新庄～青森)",2,"JR東日本"
5,1120227,"四ツ小屋","010-1417","秋田市四ツ小屋",39.661341,140.144946,11202,"JR奥羽本線(新庄～青森)",2,"JR東日本"
5,1120228,"秋田","010-0001","秋田市中通７丁目",39.716748,140.129931,11202,"JR奥羽本線(新庄～青森)",2,"JR東日本"
5,1120229,"土崎","011-0946","秋田市土崎港中央６丁目",39.758453,140.073601,11202,"JR奥羽本線(新庄～青森)",2,"JR東日本"
5,1120230,"上飯島","011-0911","秋田市飯島",39.779336,140.06847,11202,"JR奥羽本線(新庄～青森)",2,"JR東日本"
5,1120231,"追分","010-0126","秋田市金足追分",39.809925,140.05781,11202,"JR奥羽本線(新庄～青森)",2,"JR東日本"
5,1120232,"大久保","018-1401","潟上市昭和大久保",39.87089,140.063079,11202,"JR奥羽本線(新庄～青森)",2,"JR東日本"
5,1120233,"羽後飯塚","018-1504","潟上市飯田川飯塚",39.898981,140.0733,11202,"JR奥羽本線(新庄～青森)",2,"JR東日本"
5,1120234,"井川さくら","018-1516","南秋田郡井川町浜井川",39.911925,140.076022,11202,"JR奥羽本線(新庄～青森)",2,"JR東日本"
5,1120235,"八郎潟","018-1614","南秋田郡八郎潟町字中田",39.947366,140.078382,11202,"JR奥羽本線(新庄～青森)",2,"JR東日本"
5,1120236,"鯉川","018-2103","山本郡三種町鯉川",39.996361,140.077474,11202,"JR奥羽本線(新庄～青森)",2,"JR東日本"
5,1120237,"鹿渡","018-2104","山本郡三種町鹿渡",40.044619,140.082621,11202,"JR奥羽本線(新庄～青森)",2,"JR東日本"
5,1120238,"森岳","018-2303","山本郡三種町森岳",40.103164,140.070886,11202,"JR奥羽本線(新庄～青森)",2,"JR東日本"
5,1120239,"北金岡","018-2301","山本郡三種町志戸橋",40.141895,140.063565,11202,"JR奥羽本線(新庄～青森)",2,"JR東日本"
5,1120240,"東能代","016-0121","能代市鰄渕",40.191579,140.065746,11202,"JR奥羽本線(新庄～青森)",2,"JR東日本"
5,1120241,"鶴形","016-0131","能代市字鶴形",40.203879,140.118507,11202,"JR奥羽本線(新庄～青森)",2,"JR東日本"
5,1120242,"富根","018-3122","能代市二ツ井町飛根",40.217956,140.172643,11202,"JR奥羽本線(新庄～青森)",2,"JR東日本"
5,1120243,"二ツ井","018-3143","能代市二ツ井町太田面",40.212506,140.235729,11202,"JR奥羽本線(新庄～青森)",2,"JR東日本"
5,1120244,"前山","018-3342","北秋田市前山",40.214785,140.312378,11202,"JR奥羽本線(新庄～青森)",2,"JR東日本"
5,1120245,"鷹ノ巣","018-3321","北秋田市松葉町",40.232059,140.369816,11202,"JR奥羽本線(新庄～青森)",2,"JR東日本"
5,1120246,"糠沢","018-3301","北秋田市綴子",40.251094,140.397827,11202,"JR奥羽本線(新庄～青森)",2,"JR東日本"
5,1120247,"早口","018-3505","大館市早口",40.271315,140.447572,11202,"JR奥羽本線(新庄～青森)",2,"JR東日本"
5,1120248,"下川沿","017-0878","大館市川口",40.276408,140.496625,11202,"JR奥羽本線(新庄～青森)",2,"JR東日本"
5,1120249,"大館","017-0044","大館市御成町１丁目",40.288122,140.555946,11202,"JR奥羽本線(新庄～青森)",2,"JR東日本"
5,1120250,"白沢","017-0002","大館市白沢",40.338103,140.591657,11202,"JR奥羽本線(新庄～青森)",2,"JR東日本"
5,1120251,"陣場","017-0001","大館市大字長走",40.398864,140.607523,11202,"JR奥羽本線(新庄～青森)",2,"JR東日本"
2,1120252,"津軽湯の沢","038-0101","平川市碇ケ関",40.441879,140.632055,11202,"JR奥羽本線(新庄～青森)",2,"JR東日本"
2,1120253,"碇ケ関","038-0101","青森県平川市碇ヶ関高田13",40.478988,140.622443,11202,"JR奥羽本線(新庄～青森)",2,"JR東日本"
2,1120254,"長峰","038-0202","南津軽郡大鰐町大字長峰",40.516072,140.603069,11202,"JR奥羽本線(新庄～青森)",2,"JR東日本"
2,1120255,"大鰐温泉","038-0211","南津軽郡大鰐町大字大鰐字前田",40.52154,140.566914,11202,"JR奥羽本線(新庄～青森)",2,"JR東日本"
2,1120256,"石川","036-8124","青森県弘前市大字石川字野崎25-2",40.556021,140.530951,11202,"JR奥羽本線(新庄～青森)",2,"JR東日本"
2,1120257,"弘前","036-8096","弘前市表町",40.599723,140.485016,11202,"JR奥羽本線(新庄～青森)",2,"JR東日本"
2,1120258,"撫牛子","036-8075","弘前市大字撫牛子",40.621298,140.497616,11202,"JR奥羽本線(新庄～青森)",2,"JR東日本"
2,1120259,"川部","038-1141","南津軽郡田舎館村大字川部",40.646862,140.521376,11202,"JR奥羽本線(新庄～青森)",2,"JR東日本"
2,1120260,"北常盤","038-1214","南津軽郡藤崎町常盤",40.67053,140.54359,11202,"JR奥羽本線(新庄～青森)",2,"JR東日本"
2,1120261,"浪岡","038-1311","青森市浪岡浪岡",40.71021,140.580664,11202,"JR奥羽本線(新庄～青森)",2,"JR東日本"
2,1120262,"大釈迦","038-1301","青森市浪岡大釈迦",40.756736,140.587776,11202,"JR奥羽本線(新庄～青森)",2,"JR東日本"
2,1120263,"鶴ケ坂","038-0045","青森県青森市大字鶴ケ坂字川合91-3",40.791228,140.634878,11202,"JR奥羽本線(新庄～青森)",2,"JR東日本"
2,1120264,"津軽新城","038-0042","青森市大字新城",40.828022,140.672025,11202,"JR奥羽本線(新庄～青森)",2,"JR東日本"
2,1120265,"新青森","038-0003","青森県青森市大字石江字高間140-2",40.8275,140.693472,11202,"JR奥羽本線(新庄～青森)",2,"JR東日本"
2,1120266,"青森","038-0012","青森市柳川１丁目",40.828668,140.734738,11202,"JR奥羽本線(新庄～青森)",2,"JR東日本"
2,1120301,"野辺地","039-3131","上北郡野辺地町大字野辺地",40.855142,141.119603,11203,"JR大湊線",2,"JR東日本"
2,1120302,"北野辺地","039-3131","上北郡野辺地町大字野辺地",40.871077,141.134115,11203,"JR大湊線",2,"JR東日本"
2,1120303,"有戸","039-3108","上北郡野辺地町大字有戸",40.913949,141.189264,11203,"JR大湊線",2,"JR東日本"
2,1120304,"吹越","039-4153","上北郡横浜町字吹越",41.022038,141.246552,11203,"JR大湊線",2,"JR東日本"
2,1120305,"陸奥横浜","039-4133","上北郡横浜町字舘の後",41.086544,141.249757,11203,"JR大湊線",2,"JR東日本"
2,1120306,"有畑","039-4106","上北郡横浜町字有畑",41.131818,141.276421,11203,"JR大湊線",2,"JR東日本"
2,1120307,"近川","035-0011","むつ市大字奥内",41.191687,141.279021,11203,"JR大湊線",2,"JR東日本"
2,1120308,"金谷沢","035-0011","むつ市大字奥内",41.228854,141.248432,11203,"JR大湊線",2,"JR東日本"
2,1120309,"赤川","035-0044","むつ市赤川町",41.267829,141.209339,11203,"JR大湊線",2,"JR東日本"
2,1120310,"下北","035-0061","むつ市下北町",41.28288,141.18989,11203,"JR大湊線",2,"JR東日本"
2,1120311,"大湊","035-0084","むつ市大湊新町",41.280344,141.161772,11203,"JR大湊線",2,"JR東日本"
5,1120401,"東能代","016-0121","能代市鰄渕",40.191579,140.065746,11204,"JR五能線",2,"JR東日本"
5,1120402,"能代","016-0831","秋田県能代市元町14-40",40.206577,140.033084,11204,"JR五能線",2,"JR東日本"
5,1120403,"向能代","016-0014","能代市落合",40.225669,140.039111,11204,"JR五能線",2,"JR東日本"
5,1120404,"北能代","016-0016","能代市竹生",40.254138,140.033835,11204,"JR五能線",2,"JR東日本"
5,1120405,"鳥形","016-0011","能代市坂形",40.271433,140.036931,11204,"JR五能線",2,"JR東日本"
5,1120406,"沢目","018-2501","山本郡八峰町峰浜水沢",40.295929,140.037824,11204,"JR五能線",2,"JR東日本"
5,1120407,"東八森","018-2678","山本郡八峰町八森八森",40.332086,140.032462,11204,"JR五能線",2,"JR東日本"
5,1120408,"八森","018-2641","山本郡八峰町八森中浜",40.37135,140.017882,11204,"JR五能線",2,"JR東日本"
5,1120409,"滝ノ間","018-2623","山本郡八峰町八森滝ノ間",40.379967,140.00221,11204,"JR五能線",2,"JR東日本"
5,1120410,"あきた白神","018-2617","山本郡八峰町八森御所の台",40.386583,139.987793,11204,"JR五能線",2,"JR東日本"
5,1120411,"岩館","018-2606","山本郡八峰町八森釜の上",40.406241,139.966258,11204,"JR五能線",2,"JR東日本"
2,1120412,"大間越","038-2208","西津軽郡深浦町大間越",40.492407,139.950062,11204,"JR五能線",2,"JR東日本"
2,1120413,"白神岳登山口","038-2207","西津軽郡深浦町黒崎",40.513551,139.950318,11204,"JR五能線",2,"JR東日本"
2,1120414,"松神","038-2206","西津軽郡深浦町松神",40.534902,139.946556,11204,"JR五能線",2,"JR東日本"
2,1120415,"十二湖","038-2206","西津軽郡深浦町松神",40.551539,139.941986,11204,"JR五能線",2,"JR東日本"
2,1120416,"陸奥岩崎","038-2202","西津軽郡深浦町岩崎",40.583333,139.924183,11204,"JR五能線",2,"JR東日本"
2,1120417,"陸奥沢辺","038-2201","西津軽郡深浦町沢辺",40.586175,139.894991,11204,"JR五能線",2,"JR東日本"
2,1120418,"ウェスパ椿山","038-2327","西津軽郡深浦町大字舮作字鍋石２２６-１",40.592913,139.871157,11204,"JR五能線",2,"JR東日本"
2,1120419,"艫作","038-2327","西津軽郡深浦町大字舮作",40.608534,139.864856,11204,"JR五能線",2,"JR東日本"
2,1120420,"横磯","038-2325","西津軽郡深浦町大字横磯",40.629891,139.89091,11204,"JR五能線",2,"JR東日本"
2,1120421,"深浦","038-2324","西津軽郡深浦町大字深浦",40.650239,139.929372,11204,"JR五能線",2,"JR東日本"
2,1120422,"広戸","038-2321","西津軽郡深浦町大字広戸",40.67434,139.955586,11204,"JR五能線",2,"JR東日本"
2,1120423,"追良瀬","038-2413","西津軽郡深浦町大字追良瀬",40.686114,139.970298,11204,"JR五能線",2,"JR東日本"
2,1120424,"驫木","038-2412","西津軽郡深浦町大字驫木",40.707218,139.982954,11204,"JR五能線",2,"JR東日本"
2,1120425,"風合瀬","038-2411","西津軽郡深浦町大字風合瀬",40.731826,139.99432,11204,"JR五能線",2,"JR東日本"
2,1120426,"大戸瀬","038-2505","西津軽郡深浦町大字田野沢",40.759325,140.033596,11204,"JR五能線",2,"JR東日本"
2,1120427,"千畳敷","038-2504","西津軽郡深浦町大字北金ケ沢",40.767769,140.054832,11204,"JR五能線",2,"JR東日本"
2,1120428,"北金ケ沢","038-2503","青森県西津軽郡深浦町大字関字栃沢92",40.745995,140.095052,11204,"JR五能線",2,"JR東日本"
2,1120429,"陸奥柳田","038-2501","西津軽郡深浦町大字柳田",40.740616,140.123243,11204,"JR五能線",2,"JR東日本"
2,1120430,"陸奥赤石","038-2731","西津軽郡鰺ヶ沢町赤石町",40.76156,140.162057,11204,"JR五能線",2,"JR東日本"
2,1120431,"鰺ケ沢","038-2761","青森県西津軽郡鰺ヶ沢町大字舞戸町字下富田36-2",40.775255,140.220589,11204,"JR五能線",2,"JR東日本"
2,1120432,"鳴沢","038-2701","西津軽郡鰺ヶ沢町北浮田町",40.782189,140.267617,11204,"JR五能線",2,"JR東日本"
2,1120433,"越水","038-2818","つがる市森田町大館",40.787258,140.298628,11204,"JR五能線",2,"JR東日本"
2,1120434,"陸奥森田","038-2817","つがる市森田町床舞",40.781738,140.339033,11204,"JR五能線",2,"JR東日本"
2,1120435,"中田","038-2814","つがる市森田町中田",40.787424,140.364505,11204,"JR五能線",2,"JR東日本"
2,1120436,"木造","038-3158","つがる市木造房松",40.802482,140.387775,11204,"JR五能線",2,"JR東日本"
2,1120437,"五所川原","037-0063","五所川原市字大町",40.809124,140.44776,11204,"JR五能線",2,"JR東日本"
2,1120438,"陸奥鶴田","038-3503","北津軽郡鶴田町大字鶴田",40.757544,140.435276,11204,"JR五能線",2,"JR東日本"
2,1120439,"鶴泊","038-3522","北津軽郡鶴田町大字鶴泊",40.736026,140.437616,11204,"JR五能線",2,"JR東日本"
2,1120440,"板柳","038-3661","北津軽郡板柳町大字福野田",40.69726,140.461785,11204,"JR五能線",2,"JR東日本"
2,1120441,"林崎","038-3806","南津軽郡藤崎町大字林崎",40.675355,140.480401,11204,"JR五能線",2,"JR東日本"
2,1120442,"藤崎","038-3802","南津軽郡藤崎町大字藤崎",40.654047,140.499531,11204,"JR五能線",2,"JR東日本"
2,1120443,"川部","038-1141","南津軽郡田舎館村大字川部",40.646862,140.521376,11204,"JR五能線",2,"JR東日本"
2,1120501,"青森","038-0012","青森市柳川１丁目",40.828668,140.734738,11205,"JR津軽線",2,"JR東日本"
2,1120502,"油川","038-0058","青森市大字羽白",40.857035,140.690476,11205,"JR津軽線",2,"JR東日本"
2,1120503,"津軽宮田","038-0054","青森市大字奥内",40.887184,140.674579,11205,"JR津軽線",2,"JR東日本"
2,1120504,"奥内","038-0052","青森市大字清水",40.903044,140.672382,11205,"JR津軽線",2,"JR東日本"
2,1120505,"左堰","030-1273","青森市大字左堰",40.917214,140.665929,11205,"JR津軽線",2,"JR東日本"
2,1120506,"後潟","030-1271","青森市大字六枚橋",40.931519,140.662734,11205,"JR津軽線",2,"JR東日本"
2,1120507,"中沢","030-1261","青森市大字四戸橋",40.949044,140.656244,11205,"JR津軽線",2,"JR東日本"
2,1120508,"蓬田","030-1212","東津軽郡蓬田村大字阿弥陀川",40.969042,140.654533,11205,"JR津軽線",2,"JR東日本"
2,1120509,"郷沢","030-1203","東津軽郡蓬田村大字郷沢",40.987682,140.652399,11205,"JR津軽線",2,"JR東日本"
2,1120510,"瀬辺地","030-1202","東津軽郡蓬田村大字瀬辺地",41.007869,140.648179,11205,"JR津軽線",2,"JR東日本"
2,1120511,"蟹田","030-1303","東津軽郡外ヶ浜町蟹田",41.038274,140.642565,11205,"JR津軽線",2,"JR東日本"
2,1120512,"中小国","030-1305","東津軽郡外ヶ浜町蟹田小国",41.051702,140.596798,11205,"JR津軽線",2,"JR東日本"
2,1120513,"大平","030-1307","東津軽郡外ヶ浜町字蟹田大平",41.065866,140.559375,11205,"JR津軽線",2,"JR東日本"
2,1120514,"津軽二股","030-1505","東津軽郡今別町大字大川平",41.145937,140.514231,11205,"JR津軽線",2,"JR東日本"
2,1120515,"大川平","030-1505","東津軽郡今別町大字大川平",41.163204,140.507592,11205,"JR津軽線",2,"JR東日本"
2,1120516,"今別","030-1502","東津軽郡今別町大字今別",41.179741,140.490448,11205,"JR津軽線",2,"JR東日本"
2,1120517,"津軽浜名","030-1501","東津軽郡今別町大字浜名",41.180521,140.47185,11205,"JR津軽線",2,"JR東日本"
2,1120518,"三厩","030-1737","東津軽郡外ヶ浜町三厩東町",41.185404,140.444482,11205,"JR津軽線",2,"JR東日本"
2,1120601,"八戸","039-1101","八戸市尻内町",40.5092,141.431499,11206,"JR八戸線",2,"JR東日本"
2,1120602,"長苗代","039-1103","八戸市大字長苗代",40.52146,141.465907,11206,"JR八戸線",2,"JR東日本"
2,1120603,"本八戸","031-0075","八戸市内丸１",40.516286,141.488762,11206,"JR八戸線",2,"JR東日本"
2,1120604,"小中野","031-0802","八戸市大字小中野町",40.518767,141.510032,11206,"JR八戸線",2,"JR東日本"
2,1120605,"陸奥湊","031-0812","八戸市大字湊町",40.52335,141.527652,11206,"JR八戸線",2,"JR東日本"
2,1120606,"白銀","031-0821","八戸市大字白銀",40.522031,141.541648,11206,"JR八戸線",2,"JR東日本"
2,1120607,"鮫","031-0841","八戸市大字鮫町",40.530244,141.554891,11206,"JR八戸線",2,"JR東日本"
2,1120609,"陸奥白浜","031-0841","八戸市大字鮫町",40.516636,141.592299,11206,"JR八戸線",2,"JR東日本"
2,1120610,"種差海岸","031-0841","八戸市大字鮫町",40.506951,141.607367,11206,"JR八戸線",2,"JR東日本"
2,1120611,"大久喜","031-0841","八戸市大字鮫町",40.495135,141.622958,11206,"JR八戸線",2,"JR東日本"
2,1120612,"金浜","031-0843","八戸市大字金浜字金浜",40.475994,141.637366,11206,"JR八戸線",2,"JR東日本"
2,1120613,"大蛇","039-1201","三戸郡階上町大字道仏",40.467251,141.650773,11206,"JR八戸線",2,"JR東日本"
2,1120614,"階上","039-1201","三戸郡階上町大字道仏",40.456834,141.664958,11206,"JR八戸線",2,"JR東日本"
3,1120615,"角の浜","028-7911","九戸郡洋野町種市第３９地割角浜",40.444478,141.681773,11206,"JR八戸線",2,"JR東日本"
3,1120616,"平内","028-7900","九戸郡洋野町種市第３６地割",40.42552,141.699272,11206,"JR八戸線",2,"JR東日本"
3,1120617,"種市","028-7900","九戸郡洋野町種市第２３地割",40.410384,141.715232,11206,"JR八戸線",2,"JR東日本"
3,1120618,"玉川","028-7900","九戸郡洋野町種市第１３地割",40.380424,141.735117,11206,"JR八戸線",2,"JR東日本"
3,1120619,"宿戸","028-7900","九戸郡洋野町種市第７地割",40.366129,141.746683,11206,"JR八戸線",2,"JR東日本"
3,1120620,"陸中八木","028-7900","九戸郡洋野町種市第１地割",40.345485,141.766517,11206,"JR八戸線",2,"JR東日本"
3,1120621,"有家","028-7905","九戸郡洋野町有家",40.324007,141.773031,11206,"JR八戸線",2,"JR東日本"
3,1120622,"陸中中野","028-7906","九戸郡洋野町中野",40.305165,141.787768,11206,"JR八戸線",2,"JR東日本"
3,1120623,"侍浜","028-7801","久慈市侍浜町字堀切",40.261375,141.760575,11206,"JR八戸線",2,"JR東日本"
3,1120624,"陸中夏井","028-0001","久慈市夏井町字大崎",40.207747,141.791906,11206,"JR八戸線",2,"JR東日本"
3,1120625,"久慈","028-0061","久慈市中央３",40.190391,141.770891,11206,"JR八戸線",2,"JR東日本"
3,1120801,"一ノ関","021-0867","一関市駅前",38.926514,141.138177,11208,"JR大船渡線",2,"JR東日本"
3,1120802,"真滝","029-0132","一関市滝沢",38.908239,141.17793,11208,"JR大船渡線",2,"JR東日本"
3,1120803,"陸中門崎","029-0201","一関市川崎町門崎",38.916908,141.251226,11208,"JR大船渡線",2,"JR東日本"
3,1120804,"岩ノ下","029-0303","一関市東山町松川",38.947699,141.245342,11208,"JR大船渡線",2,"JR東日本"
3,1120805,"陸中松川","029-0303","一関市東山町松川",38.977237,141.238046,11208,"JR大船渡線",2,"JR東日本"
3,1120806,"猊鼻渓","029-0302","一関市東山町長坂",38.988939,141.25327,11208,"JR大船渡線",2,"JR東日本"
3,1120807,"柴宿","029-0302","一関市東山町長坂",38.996719,141.272312,11208,"JR大船渡線",2,"JR東日本"
3,1120808,"摺沢","029-0523","一関市大東町摺沢",38.99593,141.32146,11208,"JR大船渡線",2,"JR東日本"
3,1120809,"千厩","029-0803","一関市千厩町千厩",38.924873,141.34563,11208,"JR大船渡線",2,"JR東日本"
3,1120810,"小梨","029-0801","一関市千厩町清田",38.932493,141.38418,11208,"JR大船渡線",2,"JR東日本"
3,1120811,"矢越","029-1202","一関市室根町矢越",38.935224,141.429029,11208,"JR大船渡線",2,"JR東日本"
3,1120812,"折壁","029-1201","一関市室根町折壁",38.939428,141.452346,11208,"JR大船渡線",2,"JR東日本"
3,1120813,"新月","029-1201","一関市室根町折壁",38.915598,141.488796,11208,"JR大船渡線",2,"JR東日本"
4,1120814,"気仙沼","988-0077","気仙沼市古町",38.910031,141.558893,11208,"JR大船渡線",2,"JR東日本"
4,1120815,"鹿折唐桑","988-0005","気仙沼市新浜町",38.915555,141.579457,11208,"JR大船渡線",2,"JR東日本"
4,1120816,"上鹿折","988-0803","気仙沼市字上東側",38.960661,141.568232,11208,"JR大船渡線",2,"JR東日本"
3,1120817,"陸前矢作","029-2201","陸前高田市矢作町字打越",39.022554,141.579357,11208,"JR大船渡線",2,"JR東日本"
3,1120818,"竹駒","029-2203","陸前高田市竹駒町字十日市場",39.033651,141.609729,11208,"JR大船渡線",2,"JR東日本"
3,1120819,"陸前高田","029-2205","陸前高田市高田町字並杉",39.013021,141.625332,11208,"JR大船渡線",2,"JR東日本"
3,1120820,"脇ノ沢","029-2206","陸前高田市米崎町字脇の沢",39.006584,141.657359,11208,"JR大船渡線",2,"JR東日本"
3,1120821,"小友","029-2207","陸前高田市小友町字下新田",38.989242,141.699573,11208,"JR大船渡線",2,"JR東日本"
3,1120822,"細浦","022-0001","大船渡市末崎町字細浦",39.015973,141.713642,11208,"JR大船渡線",2,"JR東日本"
3,1120823,"下船渡","022-0002","大船渡市大船渡町字宮ノ前",39.038362,141.721222,11208,"JR大船渡線",2,"JR東日本"
3,1120824,"大船渡","022-0002","大船渡市大船渡町字茶屋前",39.063529,141.720807,11208,"JR大船渡線",2,"JR東日本"
3,1120825,"盛","022-0003","大船渡市盛町字東町裏",39.086372,141.710734,11208,"JR大船渡線",2,"JR東日本"
3,1120901,"花巻","025-0092","花巻市大通り",39.393182,141.110458,11209,"JR釜石線",2,"JR東日本"
3,1120902,"似内","025-0007","花巻市上似内",39.406819,141.140889,11209,"JR釜石線",2,"JR東日本"
3,1120903,"新花巻","025-0011","花巻市矢沢第１０地割",39.405839,141.17302,11209,"JR釜石線",2,"JR東日本"
3,1120904,"小山田","025-0013","花巻市幸田",39.4086,141.193999,11209,"JR釜石線",2,"JR東日本"
3,1120905,"土沢","028-0114","花巻市東和町土沢",39.383381,141.232488,11209,"JR釜石線",2,"JR東日本"
3,1120906,"晴山","028-0113","花巻市東和町東晴山",39.366617,141.257892,11209,"JR釜石線",2,"JR東日本"
3,1120907,"岩根橋","028-0304","遠野市宮守町下宮守",39.355264,141.318795,11209,"JR釜石線",2,"JR東日本"
3,1120908,"宮守","028-0304","遠野市宮守町下宮守",39.351066,141.350271,11209,"JR釜石線",2,"JR東日本"
3,1120909,"柏木平","028-0303","遠野市宮守町下鱒沢",39.30606,141.379862,11209,"JR釜石線",2,"JR東日本"
3,1120910,"鱒沢","028-0303","遠野市宮守町下鱒沢",39.300158,141.399252,11209,"JR釜石線",2,"JR東日本"
3,1120911,"荒谷前","028-0302","遠野市宮守町上鱒沢",39.309928,141.428507,11209,"JR釜石線",2,"JR東日本"
3,1120912,"岩手二日町","028-0532","遠野市綾織町下綾織",39.323441,141.45606,11209,"JR釜石線",2,"JR東日本"
3,1120913,"綾織","028-0531","遠野市綾織町新里",39.328422,141.476845,11209,"JR釜石線",2,"JR東日本"
3,1120914,"遠野","028-0522","遠野市新穀町",39.332529,141.53072,11209,"JR釜石線",2,"JR東日本"
3,1120915,"青笹","028-0503","遠野市青笹町青笹",39.311482,141.568957,11209,"JR釜石線",2,"JR東日本"
3,1120916,"岩手上郷","028-0776","遠野市上郷町板沢",39.284658,141.585834,11209,"JR釜石線",2,"JR東日本"
3,1120917,"平倉","028-0775","遠野市上郷町平倉",39.264682,141.595661,11209,"JR釜石線",2,"JR東日本"
3,1120918,"足ケ瀬","028-0772","岩手県遠野市上郷町細越38",39.254766,141.645807,11209,"JR釜石線",2,"JR東日本"
3,1120919,"上有住","029-2501","気仙郡住田町上有住",39.242013,141.681522,11209,"JR釜石線",2,"JR東日本"
3,1120920,"陸中大橋","026-0055","釜石市甲子町",39.280451,141.718436,11209,"JR釜石線",2,"JR東日本"
3,1120921,"洞泉","026-0055","釜石市甲子町",39.250671,141.760388,11209,"JR釜石線",2,"JR東日本"
3,1120922,"松倉","026-0055","釜石市甲子町",39.256458,141.801484,11209,"JR釜石線",2,"JR東日本"
3,1120923,"小佐野","026-0052","釜石市小佐野町１",39.264464,141.836515,11209,"JR釜石線",2,"JR東日本"
3,1120924,"釜石","026-0031","釜石市鈴子町",39.273321,141.87267,11209,"JR釜石線",2,"JR東日本"
3,1121001,"北上","024-0061","北上市大通り１丁目",39.281196,141.121221,11210,"JR北上線",2,"JR東日本"
3,1121002,"柳原","024-0083","北上市柳原町１丁目",39.294597,141.111671,11210,"JR北上線",2,"JR東日本"
3,1121003,"江釣子","024-0071","北上市上江釣子",39.298349,141.075749,11210,"JR北上線",2,"JR東日本"
3,1121004,"藤根","024-0334","北上市和賀町藤根",39.301064,141.039571,11210,"JR北上線",2,"JR東日本"
3,1121005,"立川目","024-0332","北上市和賀町竪川目",39.307876,140.997144,11210,"JR北上線",2,"JR東日本"
3,1121006,"横川目","024-0331","北上市和賀町横川目",39.309255,140.972143,11210,"JR北上線",2,"JR東日本"
3,1121007,"岩沢","024-0325","北上市和賀町岩沢",39.301016,140.931616,11210,"JR北上線",2,"JR東日本"
3,1121008,"和賀仙人","024-0326","北上市和賀町仙人",39.308523,140.909485,11210,"JR北上線",2,"JR東日本"
3,1121009,"ゆだ錦秋湖","029-5513","和賀郡西和賀町耳取４９地割",39.295513,140.835343,11210,"JR北上線",2,"JR東日本"
3,1121010,"ほっとゆだ","029-5512","和賀郡西和賀町川尻４０地割",39.314493,140.775647,11210,"JR北上線",2,"JR東日本"
3,1121011,"ゆだ高原","029-5523","和賀郡西和賀町白木野６７地割",39.301074,140.737205,11210,"JR北上線",2,"JR東日本"
5,1121012,"黒沢","019-1103","秋田県横手市山内黒沢字蒲坂57",39.276243,140.699619,11210,"JR北上線",2,"JR東日本"
5,1121013,"小松川","019-1102","横手市山内小松川",39.293403,140.646094,11210,"JR北上線",2,"JR東日本"
5,1121014,"平石","019-1108","横手市山内土渕",39.291678,140.628457,11210,"JR北上線",2,"JR東日本"
5,1121015,"相野々","019-1108","横手市山内土渕",39.27805,140.619067,11210,"JR北上線",2,"JR東日本"
5,1121016,"矢美津","019-1109","横手市山内大沢",39.291283,140.592099,11210,"JR北上線",2,"JR東日本"
5,1121017,"横手","013-0036","横手市駅前町",39.310146,140.5604,11210,"JR北上線",2,"JR東日本"
3,1121101,"盛岡","020-0034","盛岡市盛岡駅前通",39.701547,141.136599,11211,"JR田沢湖線",2,"JR東日本"
3,1121102,"大釜","020-0731","岩手県滝沢市篠木明法",39.711586,141.072202,11211,"JR田沢湖線",2,"JR東日本"
3,1121103,"小岩井","020-0757","岩手県滝沢市大釜風林19-2",39.709731,141.02465,11211,"JR田沢湖線",2,"JR東日本"
3,1121104,"雫石","020-0524","岩手郡雫石町寺の下",39.689244,140.974762,11211,"JR田沢湖線",2,"JR東日本"
3,1121105,"春木場","020-0583","岩手郡雫石町大字上野",39.693396,140.943954,11211,"JR田沢湖線",2,"JR東日本"
3,1121106,"赤渕","020-0581","岩手郡雫石町大字御明神",39.685112,140.907222,11211,"JR田沢湖線",2,"JR東日本"
5,1121107,"田沢湖","014-1201","仙北市田沢湖生保内",39.700363,140.722139,11211,"JR田沢湖線",2,"JR東日本"
5,1121108,"刺巻","014-1202","仙北市田沢湖刺巻",39.668563,140.69196,11211,"JR田沢湖線",2,"JR東日本"
5,1121109,"神代","014-1113","仙北市田沢湖卒田",39.622667,140.627358,11211,"JR田沢湖線",2,"JR東日本"
5,1121110,"生田","014-1114","仙北市田沢湖神代",39.612065,140.601203,11211,"JR田沢湖線",2,"JR東日本"
5,1121111,"角館","014-0373","仙北市角館町岩瀬",39.591716,140.570988,11211,"JR田沢湖線",2,"JR東日本"
5,1121112,"鶯野","014-0201","大仙市下鶯野",39.568536,140.557901,11211,"JR田沢湖線",2,"JR東日本"
5,1121113,"羽後長野","014-0207","大仙市長野",39.546003,140.540448,11211,"JR田沢湖線",2,"JR東日本"
5,1121114,"鑓見内","014-0205","大仙市鑓見内",39.519323,140.527744,11211,"JR田沢湖線",2,"JR東日本"
5,1121115,"羽後四ツ屋","014-0102","大仙市四ツ屋",39.501511,140.511886,11211,"JR田沢湖線",2,"JR東日本"
5,1121116,"北大曲","014-0102","大仙市四ツ屋",39.48944,140.497966,11211,"JR田沢湖線",2,"JR東日本"
5,1121117,"大曲","014-0027","大仙市大曲通町",39.465712,140.479628,11211,"JR田沢湖線",2,"JR東日本"
3,1121201,"好摩","028-4125","盛岡市玉山区好摩",39.874037,141.173685,11212,"JR花輪線",2,"JR東日本"
3,1121202,"東大更","028-7111","八幡平市大更",39.902621,141.142537,11212,"JR花輪線",2,"JR東日本"
3,1121203,"大更","028-7111","八幡平市大更",39.913746,141.100808,11212,"JR花輪線",2,"JR東日本"
3,1121204,"平館","028-7405","八幡平市平舘",39.950886,141.08531,11212,"JR花輪線",2,"JR東日本"
3,1121205,"北森","028-7305","八幡平市松尾",39.959201,141.066481,11212,"JR花輪線",2,"JR東日本"
3,1121206,"松尾八幡平","028-7305","八幡平市松尾",39.969241,141.043903,11212,"JR花輪線",2,"JR東日本"
3,1121207,"安比高原","028-7305","八幡平市松尾前森官有地",40.012587,140.997239,11212,"JR花輪線",2,"JR東日本"
3,1121208,"赤坂田","028-7554","八幡平市赤坂田",40.048464,141.00394,11212,"JR花輪線",2,"JR東日本"
3,1121209,"小屋の畑","028-7544","八幡平市保戸坂",40.076539,141.020673,11212,"JR花輪線",2,"JR東日本"
3,1121210,"荒屋新町","028-7534","八幡平市荒屋新町",40.097682,141.049196,11212,"JR花輪線",2,"JR東日本"
3,1121211,"横間","028-7536","八幡平市打田内",40.107475,141.027151,11212,"JR花輪線",2,"JR東日本"
3,1121212,"田山","028-7615","八幡平市石名坂",40.139674,140.944126,11212,"JR花輪線",2,"JR東日本"
3,1121213,"兄畑","028-7625","八幡平市沖ノ平",40.115869,140.88302,11212,"JR花輪線",2,"JR東日本"
5,1121214,"湯瀬温泉","018-5141","鹿角市八幡平湯瀬",40.122384,140.840292,11212,"JR花輪線",2,"JR東日本"
5,1121215,"八幡平","018-5141","鹿角市八幡平小山",40.142881,140.804496,11212,"JR花輪線",2,"JR東日本"
5,1121216,"陸中大里","018-5141","鹿角市八幡平長田",40.158574,140.793477,11212,"JR花輪線",2,"JR東日本"
5,1121217,"鹿角花輪","018-5201","鹿角市花輪下中島",40.188453,140.785088,11212,"JR花輪線",2,"JR東日本"
5,1121218,"柴平","018-5201","鹿角市花輪鶴田",40.230751,140.787941,11212,"JR花輪線",2,"JR東日本"
5,1121219,"十和田南","018-5336","鹿角市十和田錦木",40.256069,140.770716,11212,"JR花輪線",2,"JR東日本"
5,1121220,"末広","018-5337","鹿角市十和田末広",40.229788,140.737251,11212,"JR花輪線",2,"JR東日本"
5,1121221,"土深井","018-5337","鹿角市十和田末広土深井字下向",40.222452,140.713142,11212,"JR花輪線",2,"JR東日本"
5,1121222,"沢尻","018-5601","大館市十二所",40.230342,140.693288,11212,"JR花輪線",2,"JR東日本"
5,1121223,"十二所","018-5601","大館市十二所",40.21429,140.668211,11212,"JR花輪線",2,"JR東日本"
5,1121224,"大滝温泉","018-5601","大館市十二所上川代",40.209751,140.639625,11212,"JR花輪線",2,"JR東日本"
5,1121225,"扇田","018-5701","大館市比内町扇田",40.229235,140.572472,11212,"JR花輪線",2,"JR東日本"
5,1121226,"東大館","017-0846","大館市常盤木町",40.266005,140.554745,11212,"JR花輪線",2,"JR東日本"
5,1121227,"大館","017-0044","大館市御成町１丁目",40.288122,140.555946,11212,"JR花輪線",2,"JR東日本"
3,1121301,"盛岡","020-0034","盛岡市盛岡駅前通",39.701547,141.136599,11213,"JR山田線",2,"JR東日本"
3,1121302,"上盛岡","020-0015","盛岡市本町通３",39.71146,141.147937,11213,"JR山田線",2,"JR東日本"
3,1121303,"山岸","020-0004","盛岡市山岸２",39.71596,141.171401,11213,"JR山田線",2,"JR東日本"
3,1121304,"上米内","020-0001","盛岡市上米内字中居",39.743855,141.203825,11213,"JR山田線",2,"JR東日本"
3,1121307,"区界","028-2631","岩手県宮古市区界第1地割1009",39.65177,141.351352,11213,"JR山田線",2,"JR東日本"
3,1121308,"松草","028-2631","岩手県宮古市区界第4地割28",39.635918,141.437421,11213,"JR山田線",2,"JR東日本"
3,1121309,"平津戸","028-2633","岩手県宮古市平津戸",39.623408,141.511222,11213,"JR山田線",2,"JR東日本"
3,1121310,"川内","028-2513","岩手県宮古市川内第6地割48-3",39.640744,141.597548,11213,"JR山田線",2,"JR東日本"
3,1121311,"箱石","028-2304","岩手県宮古市箱石",39.617115,141.625829,11213,"JR山田線",2,"JR東日本"
3,1121312,"陸中川井","028-2302","岩手県宮古市川井第5地割102-10",39.597397,141.68153,11213,"JR山田線",2,"JR東日本"
3,1121313,"腹帯","028-2103","宮古市腹帯",39.604539,141.767434,11213,"JR山田線",2,"JR東日本"
3,1121314,"茂市","028-2101","宮古市茂市",39.620619,141.799288,11213,"JR山田線",2,"JR東日本"
3,1121315,"蟇目","028-2102","宮古市蟇目",39.629341,141.838876,11213,"JR山田線",2,"JR東日本"
3,1121316,"花原市","027-0046","宮古市大字花原市",39.630233,141.861308,11213,"JR山田線",2,"JR東日本"
3,1121317,"千徳","027-0043","宮古市大字千徳町",39.632251,141.9124,11213,"JR山田線",2,"JR東日本"
3,1121318,"宮古","027-0076","宮古市栄町",39.640287,141.946454,11213,"JR山田線",2,"JR東日本"
3,1121319,"磯鶏","027-0024","宮古市大字磯鶏",39.629883,141.960984,11213,"JR山田線",2,"JR東日本"
3,1121320,"津軽石","027-0203","宮古市大字津軽石",39.581507,141.937594,11213,"JR山田線",2,"JR東日本"
3,1121321,"豊間根","028-1302","下閉伊郡山田町豊間根",39.534274,141.924739,11213,"JR山田線",2,"JR東日本"
3,1121322,"陸中山田","028-1342","下閉伊郡山田町川向町",39.463449,141.951533,11213,"JR山田線",2,"JR東日本"
3,1121323,"織笠","028-1361","下閉伊郡山田町織笠",39.447187,141.959497,11213,"JR山田線",2,"JR東日本"
3,1121324,"岩手船越","028-1371","下閉伊郡山田町船越",39.431369,141.974033,11213,"JR山田線",2,"JR東日本"
3,1121325,"浪板海岸","028-1101","上閉伊郡大槌町吉里吉里",39.383537,141.935104,11213,"JR山田線",2,"JR東日本"
3,1121326,"吉里吉里","028-1101","上閉伊郡大槌町吉里吉里",39.36957,141.938648,11213,"JR山田線",2,"JR東日本"
3,1121327,"大槌","028-1116","上閉伊郡大槌町本町",39.356734,141.902894,11213,"JR山田線",2,"JR東日本"
3,1121328,"鵜住居","026-0301","釜石市鵜住居町",39.32694,141.887976,11213,"JR山田線",2,"JR東日本"
3,1121329,"両石","026-0304","釜石市両石町",39.308062,141.889112,11213,"JR山田線",2,"JR東日本"
3,1121330,"釜石","026-0031","釜石市鈴子町",39.273321,141.87267,11213,"JR山田線",2,"JR東日本"
15,1121401,"新津","956-0864","新潟市秋葉区新津本町１丁目",37.800383,139.121445,11214,"JR羽越本線",2,"JR東日本"
15,1121402,"京ケ瀬","959-2134","新潟県阿賀野市小河原453",37.817616,139.178322,11214,"JR羽越本線",2,"JR東日本"
15,1121403,"水原","959-2002","阿賀野市下条",37.836712,139.217237,11214,"JR羽越本線",2,"JR東日本"
15,1121404,"神山","959-1968","阿賀野市榎船渡",37.862586,139.244691,11214,"JR羽越本線",2,"JR東日本"
15,1121405,"月岡","959-2335","新発田市大字本田字中谷内",37.889334,139.272488,11214,"JR羽越本線",2,"JR東日本"
15,1121406,"中浦","959-2331","新発田市大字下飯塚",37.912202,139.302689,11214,"JR羽越本線",2,"JR東日本"
15,1121407,"新発田","957-0055","新発田市諏訪町１丁目",37.94412,139.335189,11214,"JR羽越本線",2,"JR東日本"
15,1121408,"加治","959-2451","新発田市下中",37.976411,139.358535,11214,"JR羽越本線",2,"JR東日本"
15,1121409,"金塚","959-2477","新発田市下小中山",38.020178,139.37949,11214,"JR羽越本線",2,"JR東日本"
15,1121410,"中条","959-2631","胎内市表町",38.049342,139.397541,11214,"JR羽越本線",2,"JR東日本"
15,1121411,"平木田","959-2614","胎内市平木田",38.094338,139.427835,11214,"JR羽越本線",2,"JR東日本"
15,1121412,"坂町","959-3132","村上市坂町",38.119277,139.445838,11214,"JR羽越本線",2,"JR東日本"
15,1121413,"平林","959-3435","村上市宿田",38.150027,139.459045,11214,"JR羽越本線",2,"JR東日本"
15,1121414,"岩船町","959-3446","村上市小口川",38.183564,139.459643,11214,"JR羽越本線",2,"JR東日本"
15,1121415,"村上","958-0854","村上市大字田端町",38.219851,139.463306,11214,"JR羽越本線",2,"JR東日本"
15,1121416,"間島","958-0005","村上市大字間島",38.273078,139.450229,11214,"JR羽越本線",2,"JR東日本"
15,1121417,"越後早川","958-0002","村上市大字早川字上境",38.316185,139.449887,11214,"JR羽越本線",2,"JR東日本"
15,1121418,"桑川","959-3665","村上市桑川",38.375162,139.458838,11214,"JR羽越本線",2,"JR東日本"
15,1121419,"今川","959-3662","村上市今川",38.410081,139.468389,11214,"JR羽越本線",2,"JR東日本"
15,1121420,"越後寒川","959-3653","村上市寒川",38.448689,139.489948,11214,"JR羽越本線",2,"JR東日本"
15,1121421,"勝木","959-3942","村上市勝木",38.490315,139.517468,11214,"JR羽越本線",2,"JR東日本"
15,1121422,"府屋","959-3907","村上市府屋",38.513324,139.530452,11214,"JR羽越本線",2,"JR東日本"
6,1121423,"鼠ケ関","999-7126","山形県鶴岡市鼠ヶ関乙156-2",38.555433,139.548827,11214,"JR羽越本線",2,"JR東日本"
6,1121424,"小岩川","999-7122","鶴岡市小岩川",38.590399,139.56583,11214,"JR羽越本線",2,"JR東日本"
6,1121425,"あつみ温泉","999-7205","鶴岡市温海",38.624217,139.587955,11214,"JR羽越本線",2,"JR東日本"
6,1121426,"五十川","999-7207","鶴岡市五十川",38.670658,139.616182,11214,"JR羽越本線",2,"JR東日本"
6,1121427,"小波渡","999-7462","鶴岡市大字小波渡",38.692484,139.649836,11214,"JR羽越本線",2,"JR東日本"
6,1121428,"三瀬","999-7463","鶴岡市大字三瀬",38.699448,139.673643,11214,"JR羽越本線",2,"JR東日本"
6,1121429,"羽前水沢","999-7543","鶴岡市大字大広字山崎",38.713444,139.731372,11214,"JR羽越本線",2,"JR東日本"
6,1121430,"羽前大山","997-1124","鶴岡市大山１丁目",38.742155,139.768194,11214,"JR羽越本線",2,"JR東日本"
6,1121431,"鶴岡","997-0015","鶴岡市末広町１丁目",38.74011,139.83538,11214,"JR羽越本線",2,"JR東日本"
6,1121432,"藤島","999-7611","鶴岡市上藤島",38.768646,139.894087,11214,"JR羽越本線",2,"JR東日本"
6,1121433,"西袋","999-7746","東田川郡庄内町西袋",38.811528,139.907754,11214,"JR羽越本線",2,"JR東日本"
6,1121434,"余目","999-7700","東田川郡庄内町沢田",38.844321,139.911348,11214,"JR羽越本線",2,"JR東日本"
6,1121435,"北余目","999-7703","東田川郡庄内町平岡",38.867538,139.908074,11214,"JR羽越本線",2,"JR東日本"
6,1121436,"砂越","999-6701","酒田市砂越",38.895195,139.907345,11214,"JR羽越本線",2,"JR東日本"
6,1121437,"東酒田","998-0859","酒田市大町",38.907518,139.875495,11214,"JR羽越本線",2,"JR東日本"
6,1121438,"酒田","998-0023","酒田市幸町１丁目",38.922194,139.845987,11214,"JR羽越本線",2,"JR東日本"
6,1121439,"本楯","999-8134","酒田市大字本楯",38.968648,139.882081,11214,"JR羽越本線",2,"JR東日本"
6,1121440,"南鳥海","999-8421","酒田市大字米島",38.98736,139.898662,11214,"JR羽越本線",2,"JR東日本"
6,1121441,"遊佐","999-8301","飽海郡遊佐町大字遊佐町",39.015943,139.905161,11214,"JR羽越本線",2,"JR東日本"
6,1121442,"吹浦","999-8521","飽海郡遊佐町大字吹浦",39.069934,139.878762,11214,"JR羽越本線",2,"JR東日本"
6,1121443,"女鹿","999-8521","飽海郡遊佐町大字吹浦",39.098807,139.880963,11214,"JR羽越本線",2,"JR東日本"
5,1121444,"小砂川","018-0143","にかほ市象潟町小砂川",39.137507,139.885692,11214,"JR羽越本線",2,"JR東日本"
5,1121445,"上浜","018-0135","にかほ市象潟町洗釜",39.164738,139.902823,11214,"JR羽越本線",2,"JR東日本"
5,1121446,"象潟","018-0112","にかほ市象潟町家の後",39.2078,139.902205,11214,"JR羽越本線",2,"JR東日本"
5,1121447,"金浦","018-0311","にかほ市金浦",39.256183,139.920662,11214,"JR羽越本線",2,"JR東日本"
5,1121448,"仁賀保","018-0402","にかほ市平沢",39.28979,139.964596,11214,"JR羽越本線",2,"JR東日本"
5,1121449,"西目","018-0604","由利本荘市西目町沼田",39.347536,140.018518,11214,"JR羽越本線",2,"JR東日本"
5,1121450,"羽後本荘","015-0858","由利本荘市西梵天",39.386877,140.057632,11214,"JR羽越本線",2,"JR東日本"
5,1121451,"羽後岩谷","018-0711","由利本荘市岩谷町",39.442075,140.0906,11214,"JR羽越本線",2,"JR東日本"
5,1121452,"折渡","018-1225","由利本荘市岩城上黒川",39.476423,140.091097,11214,"JR羽越本線",2,"JR東日本"
5,1121453,"羽後亀田","015-0032","由利本荘市松ケ崎",39.493884,140.063032,11214,"JR羽越本線",2,"JR東日本"
5,1121454,"岩城みなと","018-1301","由利本荘市岩城内道川",39.545487,140.055122,11214,"JR羽越本線",2,"JR東日本"
5,1121455,"道川","018-1301","由利本荘市岩城内道川",39.56054,140.057049,11214,"JR羽越本線",2,"JR東日本"
5,1121456,"下浜","010-1503","秋田市下浜羽川",39.619678,140.064567,11214,"JR羽越本線",2,"JR東日本"
5,1121457,"桂根","010-1501","秋田市下浜桂根",39.647566,140.066482,11214,"JR羽越本線",2,"JR東日本"
5,1121458,"新屋","010-1637","秋田市新屋扇町",39.677493,140.087799,11214,"JR羽越本線",2,"JR東日本"
5,1121459,"羽後牛島","010-0063","秋田市牛島西１丁目",39.695834,140.116467,11214,"JR羽越本線",2,"JR東日本"
5,1121460,"秋田","010-0001","秋田市中通７丁目",39.716748,140.129931,11214,"JR羽越本線",2,"JR東日本"
5,1121501,"追分","010-0126","秋田市金足追分",39.809925,140.05781,11215,"JR男鹿線",2,"JR東日本"
5,1121502,"出戸浜","010-0101","潟上市天王",39.844473,140.024374,11215,"JR男鹿線",2,"JR東日本"
5,1121503,"上二田","010-0101","潟上市天王",39.869089,140.00409,11215,"JR男鹿線",2,"JR東日本"
5,1121504,"二田","010-0101","潟上市天王",39.88174,139.987171,11215,"JR男鹿線",2,"JR東日本"
5,1121505,"天王","010-0101","潟上市天王",39.898782,139.963609,11215,"JR男鹿線",2,"JR東日本"
5,1121506,"船越","010-0341","男鹿市船越字狐森",39.90473,139.946804,11215,"JR男鹿線",2,"JR東日本"
5,1121507,"脇本","010-0500","男鹿市脇本字曲田",39.915172,139.902657,11215,"JR男鹿線",2,"JR東日本"
5,1121508,"羽立","010-0502","男鹿市船川港比詰字大巻",39.904569,139.86205,11215,"JR男鹿線",2,"JR東日本"
5,1121509,"男鹿","010-0511","男鹿市船川港船川字新浜町",39.884571,139.848647,11215,"JR男鹿線",2,"JR東日本"
7,1121601,"福島","960-8031","福島市栄町",37.754123,140.45968,11216,"JR奥羽本線(福島～新庄)",2,"JR東日本"
7,1121602,"笹木野","960-8057","福島市笹木野字金谷東",37.765926,140.425985,11216,"JR奥羽本線(福島～新庄)",2,"JR東日本"
7,1121603,"庭坂","960-2261","福島市町庭坂字狐林",37.771537,140.389847,11216,"JR奥羽本線(福島～新庄)",2,"JR東日本"
7,1121604,"赤岩","960-0251","福島市大笹生字赤岩",37.80567,140.335545,11216,"JR奥羽本線(福島～新庄)",2,"JR東日本"
6,1121605,"板谷","992-1331","米沢市大字板谷",37.811627,140.268815,11216,"JR奥羽本線(福島～新庄)",2,"JR東日本"
6,1121606,"峠","992-1303","米沢市大字大沢字峠",37.811935,140.236041,11216,"JR奥羽本線(福島～新庄)",2,"JR東日本"
6,1121607,"大沢","992-1203","米沢市大字大沢字峠",37.839775,140.19801,11216,"JR奥羽本線(福島～新庄)",2,"JR東日本"
6,1121608,"関根","992-1205","米沢市大字関根",37.864592,140.146284,11216,"JR奥羽本線(福島～新庄)",2,"JR東日本"
6,1121609,"米沢","992-0027","米沢市駅前１丁目",37.909478,140.128209,11216,"JR奥羽本線(福島～新庄)",2,"JR東日本"
6,1121610,"置賜","992-0112","米沢市大字浅川",37.954093,140.142496,11216,"JR奥羽本線(福島～新庄)",2,"JR東日本"
6,1121611,"高畠","999-2174","東置賜郡高畠町大字福沢",37.992314,140.15281,11216,"JR奥羽本線(福島～新庄)",2,"JR東日本"
6,1121612,"赤湯","999-2241","南陽市郡山",38.047081,140.148978,11216,"JR奥羽本線(福島～新庄)",2,"JR東日本"
6,1121613,"中川","999-2203","南陽市小岩沢",38.093349,140.203553,11216,"JR奥羽本線(福島～新庄)",2,"JR東日本"
6,1121614,"羽前中山","999-3246","上山市中山",38.124158,140.218318,11216,"JR奥羽本線(福島～新庄)",2,"JR東日本"
6,1121615,"かみのやま温泉","999-3134","上山市矢来",38.152259,140.27867,11216,"JR奥羽本線(福島～新庄)",2,"JR東日本"
6,1121616,"茂吉記念館前","999-3131","上山市北町弁天",38.171249,140.298167,11216,"JR奥羽本線(福島～新庄)",2,"JR東日本"
6,1121617,"蔵王","990-2313","山形市大字松原",38.20592,140.303299,11216,"JR奥羽本線(福島～新庄)",2,"JR東日本"
6,1121618,"山形","990-0039","山形市香澄町１丁目",38.248098,140.327253,11216,"JR奥羽本線(福島～新庄)",2,"JR東日本"
6,1121619,"北山形","990-0057","山形市宮町１丁目",38.265902,140.332658,11216,"JR奥羽本線(福島～新庄)",2,"JR東日本"
6,1121620,"羽前千歳","990-0811","山形市長町２丁目",38.287313,140.342168,11216,"JR奥羽本線(福島～新庄)",2,"JR東日本"
6,1121621,"南出羽","990-2171","山形市七浦",38.302834,140.344692,11216,"JR奥羽本線(福島～新庄)",2,"JR東日本"
6,1121622,"漆山","990-2161","山形市大字漆山",38.314477,140.347661,11216,"JR奥羽本線(福島～新庄)",2,"JR東日本"
6,1121623,"高擶","994-0068","天童市大字高擶",38.330726,140.358832,11216,"JR奥羽本線(福島～新庄)",2,"JR東日本"
6,1121636,"天童南","994-0049","山形県天童市南町三丁目",38.342489,140.365853,11216,"JR奥羽本線(福島～新庄)",2,"JR東日本"
6,1121624,"天童","994-0034","天童市本町１",38.35989,140.369303,11216,"JR奥羽本線(福島～新庄)",2,"JR東日本"
6,1121625,"乱川","994-0002","天童市大字乱川",38.386554,140.374663,11216,"JR奥羽本線(福島～新庄)",2,"JR東日本"
6,1121626,"神町","999-3763","東根市神町中央１丁目",38.412276,140.378389,11216,"JR奥羽本線(福島～新庄)",2,"JR東日本"
6,1121627,"さくらんぼ東根","999-3716","東根市大字蟹沢字鳥居崎１７４５番１",38.42806,140.380677,11216,"JR奥羽本線(福島～新庄)",2,"JR東日本"
6,1121628,"東根","999-3701","東根市大字東根甲",38.450863,140.384035,11216,"JR奥羽本線(福島～新庄)",2,"JR東日本"
6,1121629,"村山","995-0033","村山市大字楯岡新町１丁目１０番地",38.477078,140.386399,11216,"JR奥羽本線(福島～新庄)",2,"JR東日本"
6,1121630,"袖崎","995-0001","村山市大字土生田",38.548259,140.391295,11216,"JR奥羽本線(福島～新庄)",2,"JR東日本"
6,1121631,"大石田","999-4111","北村山郡大石田町大石田",38.595916,140.375349,11216,"JR奥羽本線(福島～新庄)",2,"JR東日本"
6,1121632,"北大石田","999-4101","北村山郡大石田町鷹巣",38.629487,140.371234,11216,"JR奥羽本線(福島～新庄)",2,"JR東日本"
6,1121633,"芦沢","999-4554","尾花沢市芦沢",38.655258,140.361016,11216,"JR奥羽本線(福島～新庄)",2,"JR東日本"
6,1121634,"舟形","999-4600","最上郡舟形町",38.691583,140.316157,11216,"JR奥羽本線(福島～新庄)",2,"JR東日本"
6,1121635,"新庄","996-0024","新庄市多門町",38.76256,140.306064,11216,"JR奥羽本線(福島～新庄)",2,"JR東日本"
4,1121701,"仙台","980-0021","仙台市青葉区中央一丁目1-1",38.260027,140.882158,11217,"JR仙山線",2,"JR東日本"
4,1121702,"東照宮","980-0004","仙台市青葉区宮町５",38.277262,140.88682,11217,"JR仙山線",2,"JR東日本"
4,1121703,"北仙台","981-0913","仙台市青葉区昭和町",38.281594,140.869885,11217,"JR仙山線",2,"JR東日本"
4,1121704,"北山","981-0931","仙台市青葉区北山２",38.285154,140.851876,11217,"JR仙山線",2,"JR東日本"
4,1121722,"東北福祉大前","981-0943","仙台市青葉区国見１丁目２２２番地５号",38.280468,140.842683,11217,"JR仙山線",2,"JR東日本"
4,1121705,"国見","981-0945","仙台市青葉区荒巻字坊主門",38.274783,140.8335,11217,"JR仙山線",2,"JR東日本"
4,1121706,"葛岡","989-3121","仙台市青葉区郷六字葛岡下",38.268816,140.818583,11217,"JR仙山線",2,"JR東日本"
4,1121707,"陸前落合","989-3125","仙台市青葉区下愛子森下",38.273379,140.789896,11217,"JR仙山線",2,"JR東日本"
4,1121708,"愛子","989-3124","仙台市青葉区上愛子上町",38.272661,140.761517,11217,"JR仙山線",2,"JR東日本"
4,1121709,"陸前白沢","989-3124","仙台市青葉区上愛子大道",38.278117,140.702333,11217,"JR仙山線",2,"JR東日本"
4,1121710,"熊ケ根","989-3432","仙台市青葉区熊ヶ根字檀の原一番",38.297947,140.680633,11217,"JR仙山線",2,"JR東日本"
4,1121712,"作並","989-3431","仙台市青葉区作並字相の沢",38.317738,140.632467,11217,"JR仙山線",2,"JR東日本"
4,1121714,"奥新川","989-3434","仙台市青葉区新川字岳山",38.325953,140.594329,11217,"JR仙山線",2,"JR東日本"
6,1121715,"面白山高原","999-3301","山形市大字山寺",38.333071,140.49712,11217,"JR仙山線",2,"JR東日本"
6,1121716,"山寺","999-3301","山形市大字山寺",38.309561,140.434773,11217,"JR仙山線",2,"JR東日本"
6,1121717,"高瀬","990-2232","山形市大字下東山",38.301677,140.396074,11217,"JR仙山線",2,"JR東日本"
6,1121718,"楯山","990-2221","山形市大字風間",38.301632,140.370598,11217,"JR仙山線",2,"JR東日本"
6,1121719,"羽前千歳","990-0811","山形市長町２丁目",38.287313,140.342168,11217,"JR仙山線",2,"JR東日本"
6,1121720,"北山形","990-0057","山形市宮町１丁目",38.265902,140.332658,11217,"JR仙山線",2,"JR東日本"
6,1121721,"山形","990-0039","山形市香澄町１丁目",38.248098,140.327253,11217,"JR仙山線",2,"JR東日本"
6,1121801,"山形","990-0039","山形市香澄町１丁目",38.248098,140.327253,11218,"JR左沢線",2,"JR東日本"
6,1121802,"北山形","990-0057","山形市宮町１丁目",38.265902,140.332658,11218,"JR左沢線",2,"JR東日本"
6,1121803,"東金井","990-0864","山形市陣場３丁目",38.277058,140.302666,11218,"JR左沢線",2,"JR東日本"
6,1121804,"羽前山辺","990-0300","東村山郡山辺町大字山辺",38.294756,140.271571,11218,"JR左沢線",2,"JR東日本"
6,1121805,"羽前金沢","990-0400","東村山郡中山町金沢",38.320837,140.270516,11218,"JR左沢線",2,"JR東日本"
6,1121806,"羽前長崎","990-0400","東村山郡中山町長崎",38.332969,140.273018,11218,"JR左沢線",2,"JR東日本"
6,1121807,"南寒河江","991-0043","寒河江市字島",38.356033,140.27767,11218,"JR左沢線",2,"JR東日本"
6,1121808,"寒河江","991-0031","寒河江市本町１丁目",38.372548,140.274487,11218,"JR左沢線",2,"JR東日本"
6,1121809,"西寒河江","991-0024","寒河江市字六供町",38.379627,140.26662,11218,"JR左沢線",2,"JR東日本"
6,1121810,"羽前高松","990-0523","寒河江市大字八鍬",38.397494,140.248666,11218,"JR左沢線",2,"JR東日本"
6,1121811,"柴橋","991-0063","寒河江市大字柴橋",38.380874,140.22582,11218,"JR左沢線",2,"JR東日本"
6,1121812,"左沢","991-0801","西村山郡大江町左沢",38.382223,140.208132,11218,"JR左沢線",2,"JR東日本"
6,1121901,"米沢","992-0027","米沢市駅前１丁目",37.909478,140.128209,11219,"JR米坂線",2,"JR東日本"
6,1121902,"南米沢","992-0037","米沢市本町１丁目",37.896043,140.108364,11219,"JR米坂線",2,"JR東日本"
6,1121903,"西米沢","992-0056","米沢市直江町",37.917279,140.08481,11219,"JR米坂線",2,"JR東日本"
6,1121904,"成島","992-0083","米沢市広幡町成島",37.94335,140.075584,11219,"JR米坂線",2,"JR東日本"
6,1121905,"中郡","999-0144","東置賜郡川西町大字時田",37.969109,140.067286,11219,"JR米坂線",2,"JR東日本"
6,1121906,"羽前小松","999-0121","東置賜郡川西町大字上小松",38.004721,140.048503,11219,"JR米坂線",2,"JR東日本"
6,1121907,"犬川","999-0133","東置賜郡川西町大字小松",38.025333,140.052038,11219,"JR米坂線",2,"JR東日本"
6,1121908,"今泉","993-0033","長井市今泉",38.056697,140.04412,11219,"JR米坂線",2,"JR東日本"
6,1121909,"萩生","999-0602","西置賜郡飯豊町大字萩生",38.06182,140.004207,11219,"JR米坂線",2,"JR東日本"
6,1121910,"羽前椿","999-0604","西置賜郡飯豊町大字椿",38.038636,139.994293,11219,"JR米坂線",2,"JR東日本"
6,1121911,"手ノ子","999-1111","西置賜郡飯豊町大字手ノ子",38.011766,139.961264,11219,"JR米坂線",2,"JR東日本"
6,1121912,"羽前沼沢","999-1505","西置賜郡小国町大字百子沢",38.028698,139.872497,11219,"JR米坂線",2,"JR東日本"
6,1121913,"伊佐領","999-1322","西置賜郡小国町大字伊佐領",38.05105,139.822635,11219,"JR米坂線",2,"JR東日本"
6,1121914,"羽前松岡","999-1324","西置賜郡小国町大字松岡",38.045391,139.780445,11219,"JR米坂線",2,"JR東日本"
6,1121915,"小国","999-1352","西置賜郡小国町大字岩井沢",38.061422,139.750167,11219,"JR米坂線",2,"JR東日本"
15,1121916,"越後金丸","959-3228","岩船郡関川村大字金丸",38.066474,139.663521,11219,"JR米坂線",2,"JR東日本"
15,1121917,"越後片貝","959-3226","岩船郡関川村大字片貝",38.070712,139.62239,11219,"JR米坂線",2,"JR東日本"
15,1121918,"越後下関","959-3265","岩船郡関川村大字下関",38.090037,139.560024,11219,"JR米坂線",2,"JR東日本"
15,1121919,"越後大島","959-3241","岩船郡関川村大字大島",38.099721,139.518209,11219,"JR米坂線",2,"JR東日本"
15,1121920,"坂町","959-3132","村上市坂町",38.119277,139.445838,11219,"JR米坂線",2,"JR東日本"
6,1122001,"新庄","996-0024","新庄市多門町",38.76256,140.306064,11220,"JR陸羽西線",2,"JR東日本"
6,1122002,"升形","996-0111","新庄市大字升形字下夕野",38.751646,140.24423,11220,"JR陸羽西線",2,"JR東日本"
6,1122003,"羽前前波","996-0111","新庄市大字升形字前波",38.747654,140.209525,11220,"JR陸羽西線",2,"JR東日本"
6,1122004,"津谷","999-6311","最上郡戸沢村大字津谷",38.737618,140.186375,11220,"JR陸羽西線",2,"JR東日本"
6,1122005,"古口","999-6801","最上郡戸沢村大字古口",38.737129,140.14602,11220,"JR陸羽西線",2,"JR東日本"
6,1122006,"高屋","999-6401","最上郡戸沢村大字古口字高屋番外地",38.752567,140.070936,11220,"JR陸羽西線",2,"JR東日本"
6,1122007,"清川","999-6606","東田川郡庄内町清川",38.790152,140.020761,11220,"JR陸羽西線",2,"JR東日本"
6,1122008,"狩川","999-6601","東田川郡庄内町狩川",38.79367,139.976777,11220,"JR陸羽西線",2,"JR東日本"
6,1122009,"南野","999-7727","東田川郡庄内町南野",38.81813,139.944742,11220,"JR陸羽西線",2,"JR東日本"
6,1122010,"余目","999-7700","東田川郡庄内町沢田",38.844321,139.911348,11220,"JR陸羽西線",2,"JR東日本"
4,1122101,"小牛田","987-0001","遠田郡美里町藤ケ崎",38.541111,141.064355,11221,"JR陸羽東線",2,"JR東日本"
4,1122102,"北浦","987-0000","遠田郡美里町北浦",38.55985,141.02305,11221,"JR陸羽東線",2,"JR東日本"
4,1122103,"陸前谷地","987-0000","遠田郡美里町北浦",38.565152,140.999453,11221,"JR陸羽東線",2,"JR東日本"
4,1122104,"古川","989-6162","大崎市古川駅前大通り１丁目",38.571192,140.967876,11221,"JR陸羽東線",2,"JR東日本"
4,1122105,"塚目","989-6225","大崎市古川塚目字金皿",38.572474,140.937093,11221,"JR陸羽東線",2,"JR東日本"
4,1122106,"西古川","989-6214","大崎市古川新堀字旭町",38.578214,140.895416,11221,"JR陸羽東線",2,"JR東日本"
4,1122107,"東大崎","989-6227","大崎市古川大崎伏見余在下",38.605627,140.897015,11221,"JR陸羽東線",2,"JR東日本"
4,1122108,"西大崎","989-6412","大崎市岩出山下野目字小泉",38.629986,140.889638,11221,"JR陸羽東線",2,"JR東日本"
4,1122109,"岩出山","989-6415","大崎市岩出山字東川原",38.652508,140.871492,11221,"JR陸羽東線",2,"JR東日本"
4,1122110,"有備館","989-6433","大崎市岩出山上川原町９-１",38.658135,140.86442,11221,"JR陸羽東線",2,"JR東日本"
4,1122111,"上野目","989-6404","大崎市岩出山下一栗字熊野堂",38.680563,140.859342,11221,"JR陸羽東線",2,"JR東日本"
4,1122112,"池月","989-6405","大崎市岩出山池月字下宮白山",38.708948,140.835732,11221,"JR陸羽東線",2,"JR東日本"
4,1122113,"川渡温泉","989-6712","大崎市鳴子温泉字田中",38.736834,140.779317,11221,"JR陸羽東線",2,"JR東日本"
4,1122114,"鳴子御殿湯","989-6811","大崎市鳴子温泉字鷲ノ巣",38.744612,140.737148,11221,"JR陸羽東線",2,"JR東日本"
4,1122115,"鳴子温泉","989-6823","大崎市鳴子温泉湯元",38.743193,140.715939,11221,"JR陸羽東線",2,"JR東日本"
4,1122116,"中山平温泉","989-6832","大崎市鳴子温泉星沼",38.726568,140.668103,11221,"JR陸羽東線",2,"JR東日本"
6,1122117,"堺田","999-6106","最上郡最上町大字堺田",38.73549,140.612902,11221,"JR陸羽東線",2,"JR東日本"
6,1122118,"赤倉温泉","999-6105","最上郡最上町富澤",38.730535,140.553647,11221,"JR陸羽東線",2,"JR東日本"
6,1122119,"立小路","999-6100","最上郡最上町立小路",38.742045,140.542678,11221,"JR陸羽東線",2,"JR東日本"
6,1122120,"最上","999-6101","最上郡最上町大字向町",38.755959,140.517712,11221,"JR陸羽東線",2,"JR東日本"
6,1122121,"大堀","999-6212","最上郡最上町字志茂",38.76592,140.475377,11221,"JR陸羽東線",2,"JR東日本"
6,1122122,"鵜杉","999-6212","最上郡最上町志茂字鵜杉",38.764962,140.453698,11221,"JR陸羽東線",2,"JR東日本"
6,1122123,"瀬見温泉","999-6211","最上郡最上町字瀬見",38.755192,140.419557,11221,"JR陸羽東線",2,"JR東日本"
6,1122124,"東長沢","999-4605","最上郡舟形町長沢字巾",38.718898,140.382195,11221,"JR陸羽東線",2,"JR東日本"
6,1122125,"長沢","999-4605","最上郡舟形町長沢字巾",38.709782,140.365969,11221,"JR陸羽東線",2,"JR東日本"
6,1122126,"南新庄","996-0041","新庄市大字鳥越",38.721629,140.316212,11221,"JR陸羽東線",2,"JR東日本"
6,1122127,"新庄","996-0024","新庄市多門町",38.76256,140.306064,11221,"JR陸羽東線",2,"JR東日本"
4,1122201,"あおば通","980-0021","仙台市青葉区中央３丁目２番１号",38.260749,140.878514,11222,"JR仙石線",2,"JR東日本"
4,1122202,"仙台","980-0021","仙台市青葉区中央一丁目1-1",38.260027,140.882158,11222,"JR仙石線",2,"JR東日本"
4,1122203,"榴ケ岡","983-0852","仙台市宮城野区榴岡五丁目11-1",38.258792,140.893782,11222,"JR仙石線",2,"JR東日本"
4,1122204,"宮城野原","983-0045","仙台市宮城野区宮城野２丁目",38.26115,140.905155,11222,"JR仙石線",2,"JR東日本"
4,1122205,"陸前原ノ町","983-0842","仙台市宮城野区五輪２",38.266017,140.910638,11222,"JR仙石線",2,"JR東日本"
4,1122206,"苦竹","983-0036","仙台市宮城野区苦竹１丁目",38.268722,140.918867,11222,"JR仙石線",2,"JR東日本"
4,1122207,"小鶴新田","983-0036","仙台市宮城野区原町苦竹字北谷地４７",38.273455,140.935446,11222,"JR仙石線",2,"JR東日本"
4,1122208,"福田町","983-0023","仙台市宮城野区福田町１",38.274967,140.958252,11222,"JR仙石線",2,"JR東日本"
4,1122209,"陸前高砂","983-0005","仙台市宮城野区福室前田",38.27344,140.967607,11222,"JR仙石線",2,"JR東日本"
4,1122210,"中野栄","983-0011","仙台市宮城野区栄４",38.280796,140.985236,11222,"JR仙石線",2,"JR東日本"
4,1122211,"多賀城","985-0873","多賀城市中央２",38.291656,141.005375,11222,"JR仙石線",2,"JR東日本"
4,1122212,"下馬","985-0835","多賀城市下馬２",38.305833,141.014965,11222,"JR仙石線",2,"JR東日本"
4,1122213,"西塩釜","985-0024","塩竈市錦町",38.31194,141.018419,11222,"JR仙石線",2,"JR東日本"
4,1122214,"本塩釜","985-0002","塩竈市海岸通",38.317715,141.022477,11222,"JR仙石線",2,"JR東日本"
4,1122215,"東塩釜","985-0004","塩竈市藤倉３",38.325572,141.031665,11222,"JR仙石線",2,"JR東日本"
4,1122216,"陸前浜田","981-0100","宮城郡利府町浜田",38.350747,141.041818,11222,"JR仙石線",2,"JR東日本"
4,1122217,"松島海岸","981-0200","宮城郡松島町浪打浜",38.368529,141.058523,11222,"JR仙石線",2,"JR東日本"
4,1122218,"高城町","981-0215","宮城郡松島町高城字元釜家",38.382731,141.07344,11222,"JR仙石線",2,"JR東日本"
4,1122219,"手樽","981-0211","宮城郡松島町手樽",38.38715,141.092846,11222,"JR仙石線",2,"JR東日本"
4,1122220,"陸前富山","981-0211","宮城郡松島町手樽早川",38.386307,141.107208,11222,"JR仙石線",2,"JR東日本"
4,1122221,"陸前大塚","981-0414","東松島市大塚",38.379078,141.12947,11222,"JR仙石線",2,"JR東日本"
4,1122222,"東名","981-0414","東松島市大塚北林下",38.37529956,141.14547998,11222,"JR仙石線",2,"JR東日本"
4,1122223,"野蒜","981-0411","東松島市野蒜",38.3790003,141.15703493,11222,"JR仙石線",2,"JR東日本"
4,1122224,"陸前小野","981-0301","東松島市牛網上江戸原",38.396018,141.174345,11222,"JR仙石線",2,"JR東日本"
4,1122225,"鹿妻","981-0500","東松島市矢本",38.403315,141.190073,11222,"JR仙石線",2,"JR東日本"
4,1122226,"矢本","981-0503","東松島市矢本河戸",38.420432,141.209148,11222,"JR仙石線",2,"JR東日本"
4,1122227,"東矢本","981-0503","東松島市矢本下浦",38.427993,141.22216,11222,"JR仙石線",2,"JR東日本"
4,1122228,"陸前赤井","981-0501","東松島市赤井字川前",38.432442,141.238883,11222,"JR仙石線",2,"JR東日本"
4,1122232,"石巻あゆみ野","986-0853","石巻市門脇",38.436111,141.259444,11222,"JR仙石線",2,"JR東日本"
4,1122229,"蛇田","986-0861","石巻市蛇田字下谷地",38.438218,141.277652,11222,"JR仙石線",2,"JR東日本"
4,1122230,"陸前山下","986-0877","石巻市錦町",38.437718,141.288868,11222,"JR仙石線",2,"JR東日本"
4,1122231,"石巻","986-0826","石巻市鋳銭場",38.43538,141.303553,11222,"JR仙石線",2,"JR東日本"
4,1122301,"小牛田","987-0001","遠田郡美里町藤ケ崎",38.541111,141.064355,11223,"JR石巻線",2,"JR東日本"
4,1122302,"上涌谷","987-0133","遠田郡涌谷町掃部字沖名",38.549194,141.099473,11223,"JR石巻線",2,"JR東日本"
4,1122303,"涌谷","987-0114","遠田郡涌谷町新町裏",38.538151,141.127359,11223,"JR石巻線",2,"JR東日本"
4,1122304,"前谷地","987-1101","石巻市前谷地",38.512187,141.194345,11223,"JR石巻線",2,"JR東日本"
4,1122305,"佳景山","986-1111","石巻市鹿又",38.497974,141.239622,11223,"JR石巻線",2,"JR東日本"
4,1122306,"鹿又","986-1111","石巻市鹿又",38.485851,141.283016,11223,"JR石巻線",2,"JR東日本"
4,1122307,"曽波神","986-1111","石巻市鹿又",38.465993,141.287848,11223,"JR石巻線",2,"JR東日本"
4,1122308,"石巻","986-0826","石巻市鋳銭場",38.43538,141.303553,11223,"JR石巻線",2,"JR東日本"
4,1122309,"陸前稲井","986-0003","石巻市井内滝ノ口",38.445463,141.334847,11223,"JR石巻線",2,"JR東日本"
4,1122310,"渡波","986-2121","石巻市渡波町１丁目",38.420051,141.365123,11223,"JR石巻線",2,"JR東日本"
4,1122311,"万石浦","986-2103","石巻市流留字垂水",38.428855,141.368555,11223,"JR石巻線",2,"JR東日本"
4,1122312,"沢田","986-2102","石巻市沢田字沢田",38.432397,141.38234,11223,"JR石巻線",2,"JR東日本"
4,1122313,"浦宿","986-2231","牡鹿郡女川町大字浦宿浜",38.436542,141.421355,11223,"JR石巻線",2,"JR東日本"
4,1122314,"女川","986-2261","牡鹿郡女川町大字女川浜字大原",38.446403,141.444919,11223,"JR石巻線",2,"JR東日本"
4,1122401,"前谷地","987-1101","石巻市前谷地",38.512187,141.194345,11224,"JR気仙沼線",2,"JR東日本"
4,1122402,"和渕","987-1102","石巻市和渕",38.525772,141.220428,11224,"JR気仙沼線",2,"JR東日本"
4,1122403,"のの岳","987-0284","遠田郡涌谷町猪岡短台字大谷地",38.552567,141.225813,11224,"JR気仙沼線",2,"JR東日本"
4,1122404,"陸前豊里","987-0366","登米市豊里町上屋浦",38.582481,141.244674,11224,"JR気仙沼線",2,"JR東日本"
4,1122405,"御岳堂","987-0341","登米市豊里町大沢沼田",38.605662,141.264718,11224,"JR気仙沼線",2,"JR東日本"
4,1122406,"柳津","987-0500","登米市津山町谷木",38.611693,141.305947,11224,"JR気仙沼線",2,"JR東日本"
4,1122407,"陸前横山","986-0402","登米市津山町横山",38.630776,141.353981,11224,"JR気仙沼線",2,"JR東日本"
4,1122408,"陸前戸倉","986-0781","本吉郡南三陸町戸倉",38.647977,141.43338,11224,"JR気仙沼線",2,"JR東日本"
4,1122409,"志津川","986-0767","本吉郡南三陸町志津川中瀬町",38.678113,141.442894,11224,"JR気仙沼線",2,"JR東日本"
4,1122410,"清水浜","986-0706","本吉郡南三陸町志津川清水浜",38.690418,141.486798,11224,"JR気仙沼線",2,"JR東日本"
4,1122411,"歌津","988-0453","本吉郡南三陸町歌津伊里前",38.717661,141.519263,11224,"JR気仙沼線",2,"JR東日本"
4,1122412,"陸前港","988-0402","本吉郡南三陸町歌津港",38.738559,141.530859,11224,"JR気仙沼線",2,"JR東日本"
4,1122413,"蔵内","988-0324","宮城県気仙沼市本吉町歌生116",38.753952,141.524214,11224,"JR気仙沼線",2,"JR東日本"
4,1122414,"陸前小泉","988-0332","宮城県気仙沼市本吉町下宿38",38.766786,141.509068,11224,"JR気仙沼線",2,"JR東日本"
4,1122415,"本吉","988-0309","宮城県気仙沼市本吉町津谷松尾79-1",38.786042,141.501937,11224,"JR気仙沼線",2,"JR東日本"
4,1122416,"小金沢","988-0272","宮城県気仙沼市本吉町小金沢",38.795686,141.534755,11224,"JR気仙沼線",2,"JR東日本"
4,1122417,"大谷海岸","988-0273","宮城県気仙沼市本吉町三島94-12",38.813901,141.566927,11224,"JR気仙沼線",2,"JR東日本"
4,1122418,"陸前階上","988-0233","気仙沼市字長磯原",38.837113,141.580339,11224,"JR気仙沼線",2,"JR東日本"
4,1122419,"最知","988-0211","気仙沼市字最知川原",38.853516,141.581382,11224,"JR気仙沼線",2,"JR東日本"
4,1122420,"松岩","988-0113","気仙沼市字松崎片浜",38.873369,141.583768,11224,"JR気仙沼線",2,"JR東日本"
4,1122421,"南気仙沼","988-0024","気仙沼市仲町２丁目",38.894816,141.576753,11224,"JR気仙沼線",2,"JR東日本"
4,1122422,"不動の沢","988-0063","気仙沼市字四反田",38.898519,141.56236,11224,"JR気仙沼線",2,"JR東日本"
4,1122423,"気仙沼","988-0077","気仙沼市古町",38.910031,141.558893,11224,"JR気仙沼線",2,"JR東日本"
7,1122501,"郡山","963-8003","郡山市燧田",37.398187,140.389363,11225,"JR磐越西線(郡山～会津若松)",2,"JR東日本"
7,1122516,"郡山富田","963-8041","福島県郡山市富田町満水田",37.420361,140.3695,11225,"JR磐越西線(郡山～会津若松)",2,"JR東日本"
7,1122502,"喜久田","963-0551","郡山市喜久田町堀之内字椚内",37.451746,140.341912,11225,"JR磐越西線(郡山～会津若松)",2,"JR東日本"
7,1122503,"安子ケ島","963-1304","福島県郡山市熱海町安子島字出シ8",37.472048,140.310133,11225,"JR磐越西線(郡山～会津若松)",2,"JR東日本"
7,1122504,"磐梯熱海","963-1309","郡山市熱海町熱海４",37.480743,140.2707,11225,"JR磐越西線(郡山～会津若松)",2,"JR東日本"
7,1122505,"中山宿","963-1308","郡山市熱海町中山字早稲田",37.495648,140.219401,11225,"JR磐越西線(郡山～会津若松)",2,"JR東日本"
7,1122506,"上戸","969-2275","耶麻郡猪苗代町大字山潟字江愛山",37.487848,140.163538,11225,"JR磐越西線(郡山～会津若松)",2,"JR東日本"
7,1122507,"猪苗代湖畔","969-2274","耶麻郡猪苗代町大字壺楊字南浜",37.500563,140.147564,11225,"JR磐越西線(郡山～会津若松)",2,"JR東日本"
7,1122508,"関都","969-2273","耶麻郡猪苗代町大字関都字南切立",37.515577,140.143619,11225,"JR磐越西線(郡山～会津若松)",2,"JR東日本"
7,1122509,"川桁","969-2663","耶麻郡猪苗代町大字川桁字新町",37.535639,140.136869,11225,"JR磐越西線(郡山～会津若松)",2,"JR東日本"
7,1122510,"猪苗代","969-3133","耶麻郡猪苗代町大字千代田字扇田",37.546286,140.103122,11225,"JR磐越西線(郡山～会津若松)",2,"JR東日本"
7,1122511,"翁島","969-3286","耶麻郡猪苗代町大字磐根中",37.552837,140.054079,11225,"JR磐越西線(郡山～会津若松)",2,"JR東日本"
7,1122512,"磐梯町","969-3301","耶麻郡磐梯町大字磐梯字東松山",37.557305,139.993413,11225,"JR磐越西線(郡山～会津若松)",2,"JR東日本"
7,1122513,"東長原","969-3421","会津若松市河東町熊野堂",37.566465,139.948239,11225,"JR磐越西線(郡山～会津若松)",2,"JR東日本"
7,1122514,"広田","969-3471","会津若松市河東町広田",37.549235,139.933343,11225,"JR磐越西線(郡山～会津若松)",2,"JR東日本"
7,1122515,"会津若松","965-0041","会津若松市駅前町",37.508824,139.930159,11225,"JR磐越西線(郡山～会津若松)",2,"JR東日本"
7,1122601,"会津若松","965-0041","会津若松市駅前町",37.508824,139.930159,11226,"JR磐越西線(森と水とロマンの鉄道)",2,"JR東日本"
7,1122602,"堂島","969-3481","会津若松市河東町郡山",37.554723,139.911706,11226,"JR磐越西線(森と水とロマンの鉄道)",2,"JR東日本"
7,1122603,"笈川","969-3500","河沼郡湯川村字松川",37.579117,139.895318,11226,"JR磐越西線(森と水とロマンの鉄道)",2,"JR東日本"
7,1122604,"塩川","969-3523","喜多方市塩川町石橋",37.59393,139.88716,11226,"JR磐越西線(森と水とロマンの鉄道)",2,"JR東日本"
7,1122605,"姥堂","969-3531","喜多方市塩川町新井田谷地",37.615952,139.881001,11226,"JR磐越西線(森と水とロマンの鉄道)",2,"JR東日本"
7,1122606,"会津豊川","966-0912","喜多方市豊川町一井字三百刈",37.633499,139.876787,11226,"JR磐越西線(森と水とロマンの鉄道)",2,"JR東日本"
7,1122607,"喜多方","966-0846","喜多方市字町田下",37.643886,139.868365,11226,"JR磐越西線(森と水とロマンの鉄道)",2,"JR東日本"
7,1122608,"山都","969-4131","喜多方市山都町広野字西原",37.639228,139.766534,11226,"JR磐越西線(森と水とロマンの鉄道)",2,"JR東日本"
7,1122609,"荻野","969-4301","喜多方市高郷町上郷字馬場頭",37.617613,139.722119,11226,"JR磐越西線(森と水とロマンの鉄道)",2,"JR東日本"
7,1122610,"尾登","969-4401","耶麻郡西会津町登世島",37.609024,139.691542,11226,"JR磐越西線(森と水とロマンの鉄道)",2,"JR東日本"
7,1122611,"野沢","969-4406","耶麻郡西会津町野沢",37.590898,139.64462,11226,"JR磐越西線(森と水とロマンの鉄道)",2,"JR東日本"
7,1122612,"上野尻","969-4512","耶麻郡西会津町上野尻",37.625041,139.633869,11226,"JR磐越西線(森と水とロマンの鉄道)",2,"JR東日本"
7,1122613,"徳沢","969-4511","耶麻郡西会津町大字群岡字徳沢",37.666876,139.602879,11226,"JR磐越西線(森と水とロマンの鉄道)",2,"JR東日本"
15,1122614,"豊実","959-4304","東蒲原郡阿賀町豊実",37.680541,139.576348,11226,"JR磐越西線(森と水とロマンの鉄道)",2,"JR東日本"
15,1122615,"日出谷","959-4303","東蒲原郡阿賀町日出谷",37.705699,139.533985,11226,"JR磐越西線(森と水とロマンの鉄道)",2,"JR東日本"
15,1122616,"鹿瀬","959-4301","東蒲原郡阿賀町向鹿瀬",37.695656,139.479663,11226,"JR磐越西線(森と水とロマンの鉄道)",2,"JR東日本"
15,1122617,"津川","959-4400","東蒲原郡阿賀町",37.68817,139.447136,11226,"JR磐越西線(森と水とロマンの鉄道)",2,"JR東日本"
15,1122618,"三川","959-4400","東蒲原郡阿賀町",37.70835,139.381482,11226,"JR磐越西線(森と水とロマンの鉄道)",2,"JR東日本"
15,1122619,"五十島","959-4614","東蒲原郡阿賀町五十島",37.715974,139.353419,11226,"JR磐越西線(森と水とロマンの鉄道)",2,"JR東日本"
15,1122620,"東下条","959-4634","東蒲原郡阿賀町熊渡",37.736876,139.321815,11226,"JR磐越西線(森と水とロマンの鉄道)",2,"JR東日本"
15,1122621,"咲花","959-1615","五泉市大字佐取",37.735003,139.29095,11226,"JR磐越西線(森と水とロマンの鉄道)",2,"JR東日本"
15,1122622,"馬下","959-1614","五泉市大字馬下",37.737569,139.260466,11226,"JR磐越西線(森と水とロマンの鉄道)",2,"JR東日本"
15,1122623,"猿和田","959-1643","五泉市大字土堀",37.729594,139.222481,11226,"JR磐越西線(森と水とロマンの鉄道)",2,"JR東日本"
15,1122624,"五泉","959-1823","五泉市駅前１",37.734373,139.179785,11226,"JR磐越西線(森と水とロマンの鉄道)",2,"JR東日本"
15,1122625,"北五泉","959-1814","五泉市北五泉駅前",37.746785,139.169758,11226,"JR磐越西線(森と水とロマンの鉄道)",2,"JR東日本"
15,1122626,"新関","956-0827","新潟市秋葉区大関",37.768096,139.162508,11226,"JR磐越西線(森と水とロマンの鉄道)",2,"JR東日本"
15,1122627,"東新津","956-0854","新潟市秋葉区滝谷町",37.787638,139.143768,11226,"JR磐越西線(森と水とロマンの鉄道)",2,"JR東日本"
15,1122628,"新津","956-0864","新潟市秋葉区新津本町１丁目",37.800383,139.121445,11226,"JR磐越西線(森と水とロマンの鉄道)",2,"JR東日本"
7,1122701,"会津若松","965-0041","会津若松市駅前町",37.508824,139.930159,11227,"JR只見線",2,"JR東日本"
7,1122702,"七日町","965-0044","会津若松市七日町",37.50121,139.918958,11227,"JR只見線",2,"JR東日本"
7,1122703,"西若松","965-0853","会津若松市材木町１",37.486034,139.914172,11227,"JR只見線",2,"JR東日本"
7,1122704,"会津本郷","969-6183","会津若松市北会津町上米塚",37.463488,139.892987,11227,"JR只見線",2,"JR東日本"
7,1122705,"会津高田","969-6268","大沼郡会津美里町柳台",37.470839,139.841266,11227,"JR只見線",2,"JR東日本"
7,1122706,"根岸","969-6405","大沼郡会津美里町米田根岸",37.501885,139.828603,11227,"JR只見線",2,"JR東日本"
7,1122707,"新鶴","969-6411","大沼郡会津美里町立石田",37.517161,139.828499,11227,"JR只見線",2,"JR東日本"
7,1122708,"若宮","969-6500","河沼郡会津坂下町字若宮",37.535243,139.828321,11227,"JR只見線",2,"JR東日本"
7,1122709,"会津坂下","969-6545","河沼郡会津坂下町字五反田",37.556695,139.821509,11227,"JR只見線",2,"JR東日本"
7,1122710,"塔寺","969-6583","河沼郡会津坂下町気多宮",37.569368,139.785241,11227,"JR只見線",2,"JR東日本"
7,1122711,"会津坂本","969-6586","河沼郡会津坂下町坂本字上新田",37.553266,139.756802,11227,"JR只見線",2,"JR東日本"
7,1122712,"会津柳津","969-7201","河沼郡柳津町柳津字下大平",37.538664,139.723817,11227,"JR只見線",2,"JR東日本"
7,1122713,"郷戸","969-7205","河沼郡柳津町大字郷戸字百刈",37.51636,139.709911,11227,"JR只見線",2,"JR東日本"
7,1122714,"滝谷","969-7205","河沼郡柳津町大字郷戸字居平丁",37.494315,139.69799,11227,"JR只見線",2,"JR東日本"
7,1122715,"会津桧原","969-7513","大沼郡三島町大字桧原",37.491664,139.679382,11227,"JR只見線",2,"JR東日本"
7,1122716,"会津西方","969-7402","大沼郡三島町大字名入字根岸居平",37.480937,139.661528,11227,"JR只見線",2,"JR東日本"
7,1122717,"会津宮下","969-7511","大沼郡三島町大字宮下字田中",37.471169,139.647102,11227,"JR只見線",2,"JR東日本"
7,1122718,"早戸","969-7406","大沼郡三島町大字早戸字小津巻",37.469953,139.593605,11227,"JR只見線",2,"JR東日本"
7,1122719,"会津水沼","968-0001","大沼郡金山町大字水沼字桑畑",37.483026,139.560733,11227,"JR只見線",2,"JR東日本"
7,1122720,"会津中川","968-0006","大沼郡金山町大字中川",37.473785,139.532135,11227,"JR只見線",2,"JR東日本"
7,1122721,"会津川口","968-0011","大沼郡金山町大字川口字森ノ上",37.455076,139.52384,11227,"JR只見線",2,"JR東日本"
7,1122722,"本名","968-0016","大沼郡金山町大字本名",37.44476,139.49882,11227,"JR只見線",2,"JR東日本"
7,1122723,"会津越川","968-0321","大沼郡金山町大字越川",37.398684,139.469405,11227,"JR只見線",2,"JR東日本"
7,1122724,"会津横田","968-0322","大沼郡金山町大字横田",37.392353,139.435853,11227,"JR只見線",2,"JR東日本"
7,1122725,"会津大塩","968-0326","大沼郡金山町大字大塩",37.392803,139.413044,11227,"JR只見線",2,"JR東日本"
7,1122726,"会津塩沢","968-0411","南会津郡只見町大字塩沢字上田",37.393599,139.355096,11227,"JR只見線",2,"JR東日本"
7,1122727,"会津蒲生","968-0414","南会津郡只見町大字蒲生字久保",37.381775,139.333213,11227,"JR只見線",2,"JR東日本"
7,1122728,"只見","968-0421","南会津郡只見町大字只見字上ノ原",37.350239,139.314783,11227,"JR只見線",2,"JR東日本"
15,1122730,"大白川","946-0303","魚沼市大白川",37.341687,139.121373,11227,"JR只見線",2,"JR東日本"
15,1122732,"入広瀬","946-0305","魚沼市大栃山",37.358818,139.06599,11227,"JR只見線",2,"JR東日本"
15,1122733,"上条","946-0203","魚沼市渋川",37.346836,139.050698,11227,"JR只見線",2,"JR東日本"
15,1122734,"越後須原","946-0216","魚沼市須原",37.320591,139.017463,11227,"JR只見線",2,"JR東日本"
15,1122735,"魚沼田中","946-0106","魚沼市田中",37.294413,138.992578,11227,"JR只見線",2,"JR東日本"
15,1122736,"越後広瀬","946-0111","魚沼市並柳",37.274363,138.981141,11227,"JR只見線",2,"JR東日本"
15,1122737,"藪神","946-0051","魚沼市今泉",37.256737,138.975698,11227,"JR只見線",2,"JR東日本"
15,1122738,"小出","946-0007","魚沼市四日町",37.233581,138.953526,11227,"JR只見線",2,"JR東日本"
7,1122801,"いわき","970-8026","いわき市平字田町",37.058241,140.892273,11228,"JR磐越東線",2,"JR東日本"
7,1122802,"赤井","979-3131","いわき市平赤井",37.080631,140.866294,11228,"JR磐越東線",2,"JR東日本"
7,1122803,"小川郷","979-3122","いわき市小川町高萩",37.126446,140.862514,11228,"JR磐越東線",2,"JR東日本"
7,1122804,"江田","979-3124","いわき市小川町上小川字江田",37.179389,140.82609,11228,"JR磐越東線",2,"JR東日本"
7,1122805,"川前","979-3201","いわき市川前町大字川前字中の萱",37.20559,140.750335,11228,"JR磐越東線",2,"JR東日本"
7,1122806,"夏井","963-3312","田村郡小野町大字夏井字町屋",37.253108,140.662552,11228,"JR磐越東線",2,"JR東日本"
7,1122807,"小野新町","963-3402","田村郡小野町大字谷津作字平館",37.275819,140.63656,11228,"JR磐越東線",2,"JR東日本"
7,1122808,"神俣","963-3602","田村市滝根町神俣",37.324186,140.659487,11228,"JR磐越東線",2,"JR東日本"
7,1122809,"菅谷","963-3601","田村市滝根町菅谷",37.351024,140.644185,11228,"JR磐越東線",2,"JR東日本"
7,1122810,"大越","963-4111","田村市大越町上大越",37.386746,140.630693,11228,"JR磐越東線",2,"JR東日本"
7,1122811,"磐城常葉","963-4311","田村市船引町今泉字田中",37.420611,140.605579,11228,"JR磐越東線",2,"JR東日本"
7,1122812,"船引","963-4312","田村市船引町船引",37.44291,140.574558,11228,"JR磐越東線",2,"JR東日本"
7,1122813,"要田","963-4323","田村市船引町要田",37.453969,140.520773,11228,"JR磐越東線",2,"JR東日本"
7,1122814,"三春","963-7771","田村郡三春町大字平沢字担橋",37.449841,140.479275,11228,"JR磐越東線",2,"JR東日本"
7,1122815,"舞木","963-0661","郡山市舞木町字平",37.416716,140.435074,11228,"JR磐越東線",2,"JR東日本"
7,1122816,"郡山","963-8003","郡山市燧田",37.398187,140.389363,11228,"JR磐越東線",2,"JR東日本"
9,1123101,"黒磯","325-0056","那須塩原市本町",36.970128,140.060204,11231,"JR東北本線(黒磯～利府・盛岡)",2,"JR東日本"
9,1123102,"高久","325-0001","那須郡那須町大字高久甲西久保７２０-４",36.996572,140.087346,11231,"JR東北本線(黒磯～利府・盛岡)",2,"JR東日本"
9,1123103,"黒田原","329-3222","那須郡那須町大字寺子丙",37.022848,140.119586,11231,"JR東北本線(黒磯～利府・盛岡)",2,"JR東日本"
9,1123104,"豊原","329-3213","那須郡那須町大字豊原",37.055014,140.155066,11231,"JR東北本線(黒磯～利府・盛岡)",2,"JR東日本"
7,1123105,"白坂","961-0835","白河市白坂",37.09457,140.184388,11231,"JR東北本線(黒磯～利府・盛岡)",2,"JR東日本"
7,1123106,"新白河","961-8061","西白河郡西郷村小田倉",37.12331,140.188969,11231,"JR東北本線(黒磯～利府・盛岡)",2,"JR東日本"
7,1123107,"白河","961-0074","白河市字郭内",37.129692,140.213742,11231,"JR東北本線(黒磯～利府・盛岡)",2,"JR東日本"
7,1123108,"久田野","961-0011","白河市大字久田野字田中",37.137048,140.259458,11231,"JR東北本線(黒磯～利府・盛岡)",2,"JR東日本"
7,1123109,"泉崎","969-0101","西白河郡泉崎村大字泉崎字館",37.15835,140.299026,11231,"JR東北本線(黒磯～利府・盛岡)",2,"JR東日本"
7,1123110,"矢吹","969-0221","西白河郡矢吹町中町",37.205286,140.327983,11231,"JR東北本線(黒磯～利府・盛岡)",2,"JR東日本"
7,1123111,"鏡石","969-0404","岩瀬郡鏡石町大字笠石字中央",37.250733,140.346812,11231,"JR東北本線(黒磯～利府・盛岡)",2,"JR東日本"
7,1123112,"須賀川","962-0004","須賀川市中山",37.300335,140.372014,11231,"JR東北本線(黒磯～利府・盛岡)",2,"JR東日本"
